cartodb_id,the_geom,field_1,uid,feature_name,address,city,state,side,category,group_class,secondary_class_for_internal_use,year_dedicated,school_percent_black,source,notes,latitude,longitude
127,0101000020E61000001B13BDE71B4A57C09F33B3E08F9C4140,,7,Dardanelle Confederate Monument,"NW Corner Of Courthouse Lawn, Near Jct. Of Union And Front Sts.",Dardanelle,AR,South,Monument,Monument,,1921,,National Register of Historic Places / http://collections.si.edu/search/tag/tagDoc.htm?recordID=siris_ari_336929&hlterm=confederate,,35.2231408,-93.1579532
200,0101000020E6100000657F4523C4A154C0E12879758E853B40,,8,Judah P. Benjamin Confederate Memorial,Gamble Plantation State Historic Site,Ellenton,FL,South,Monument,Monument,,1925,,http://www.abfla.com/parks/GamblePlantation/gambleplantation.html,,27.521705,-82.5275963
202,0101000020E6100000BEA59C2FF66954C0D0425DFF09553E40,,10,Florida Confederate Soldiers Memorial,Hemming Park,Jacksonville,FL,South,Monument,Monument,,1899,,http://www.scv-kirby-smith.org/confederate_monument__hemming_pa.htm,,30.3321838,-81.655651
306,0101000020E6100000E13B7B78E02955C0F31FD26F5FB34040,,11,Thomas Overby Drive,,Sharpsburg,GA,South,Road / Street / Highway,Highway / Roadway,,Unknown,,,,33.40135,-84.6543256
425,0101000020E61000008C92FC2DA62755C08CBEDDEDD5864340,o,,General Stuart Drive,,Erlanger,KY,Border,Road / Street / Highway,Highway / Roadway,,,,,,39.0534036,-84.6195178
421,0101000020E610000094B0259AF6DB57C0F0E1ED9CC1E74240,,115,Confederate Soldier Shot Monument,City Square,Humboldt,KS,North,Monument,Monument,,Unknown,,http://www.hmdb.org/marker.asp?marker=57465,,37.8105961,-95.4369264
634,0101000020E6100000818C800A471F56C046A1760998583E40,o,,Anderson Road,,Moss Point,MS,South,Road / Street / Highway,Highway / Roadway,,,,,,30.3460699,-88.488711
675,0101000020E61000009929ADBF252156C00FAF905E79764140,,9,Corinth Confederate Memorial,South Cass Street,Corinth,MS,South,Monument,Monument,,1992,,http://www.hmdb.org/marker.asp?marker=37280,,34.9255789,-88.517929
788,0101000020E6100000A614CF343CC153C0EEB5FBB039E14140,,13,Confederate Arsenal,Bradford Avenue,Fayettesville,NC,South,Monument,Monument,,1928,,http://www.waymarking.com/waymarks/WME9J_Arsenal,,35.7595731,-79.0192997
892,0101000020E61000004473F8FFCC8053C0EBFB709010F64340,,6,Confederate Lane,,McConnellsburg,PA,North,Road / Street / Highway,Highway / Roadway,,Unknown,,,,39.9223805,-78.0125122
945,0101000020E6100000390EBC5AEE3554C00F60915F3FD24040,,42,Stonewall Lane,,Saint Matthews,SC,South,Road / Street / Highway,Highway / Roadway,,,,https://lauraneckstein.cartodb.com/viz/49eff522-17b0-11e5-870e-0e4fddd5de28/public_map,,33.642559,-80.842673
1014,0101000020E6100000D19BE50D0B0156C0483140A209084240,o,,Jeff Davis Drive,,Eva,TN,South,Road / Street / Highway,Highway / Roadway,,Unknown,,,,36.062794,-88.0162997
1110,0101000020E6100000DED1B5E5923A59C0D940BAD8B45F4040,,#REF!,Scurry County,,Snyder,TX,South,County,County,,1884,,"https://en.wikipedia.org/wiki/Scurry_County,_Texas",,32.7477065,-100.9152159
1152,0101000020E61000003AE05FA9D3C559C085BAA35A9FDB3F40,,2,East Winkler Street,,Kermit,TX,South,Road / Street / Highway,Highway / Roadway,,Unknown,,,,31.8579003,-103.0910438
1153,0101000020E6100000BBBF304F9D7958C0B54BC054D8C34040,,3,Jefferson Davis Highway,,,TX,,Road / Street / Highway,Highway / Roadway,,,,,,33.5300394,-97.9002264
1174,0101000020E6100000B93A5B9BA19757C01FD61BB5C2454040,,23,Confederate Monument,Old County Courthouse,Marshall,TX,South,Monument,Monument,,1906,,http://keranews.org/post/texas-and-confederacy-primer,http://www.waymarking.com/waymarks/WMER7D_Confederate_Monument_at_Marshall_Texas_Marshall_TX,32.5450045,-94.3692387
1200,0101000020E6100000E344AADED0A558C09681B9CC9F8D4040,,49,Confederate Memorial,Young County Courthouse,Graham,TX,South,Monument / Courthouse,Monument,Courthouse Grounds,1916,,http://www.waymarking.com/waymarks/WM3T85_Memorial_to_the_Confederate_Soldiers_of_Young_County_Graham_TX,,33.1064392,-98.5908734
1341,0101000020E6100000C99F5EDFBD4853C0999EB0C4036A4340,,23,Early Street,,Alexandria,VA,South,Road / Street / Highway,Highway / Roadway,,,,http://www.bizjournals.com/washington/breaking_ground/2015/09/how-many-confederacy-tied-alexandria-streets-can.html,,38.82824,-77.1365889
55,0101000020E61000008A28DCE1E55555C0A99B8BBFED593F40,,18,Henry County Confederate Memorial,Town Square,Headland,AL,South,Monument,Monument,,1936,,http://www.hmdb.org/marker.asp?marker=71840,,31.351284,-85.3421559
180,0101000020E6100000E42CEC69078754C0D42D967DB2F13D40,,12,Bradford County,,Starke,FL,South,County,County,,1861,,"https://en.wikipedia.org/wiki/Bradford_County,_Florida",,29.9441298,-82.1098275
149,0101000020E6100000AC6BB41CE88C56C0452C62D8619A4140,,29,Crittenden County Civil War Memorial,Crittenden County Court House,Marion,AR,South,Monument / Courthouse,Monument,Courthouse Grounds,1936,,http://www.arkansasties.com/WhatsNew/2010/12/crittenden-county-civil-war-memorial/,,35.206111,-90.201667
259,0101000020E6100000CDD6B095060A55C0DFE8746A78194040,o,,Robert E. Lee Street,,Andersonville,GA,South,Road / Street / Highway,Highway / Roadway,,Unknown,,,,32.1989873,-84.1566519
505,0101000020E6100000AADAC93B624E57C055867137882A3E40,o,,Beauregard Street,,Lake Charles,LA,South,Road / Street / Highway,Highway / Roadway,,,,,,30.166141,-93.2247457
396,0101000020E6100000781673C6E61455C0F8991F24B0714040,,90,At Rest Arms Monument,Courthouse Square,Thomaston,GA,South,Monument / Courthouse,Monument,Courthouse Grounds,1908,,http://www.waymarking.com/waymarks/WMA656_At_Rest_Arms_Thomaston_GA,,32.8881879,-84.3265854
482,0101000020E6100000CF9211618DC056C0806C4892D6643E40,o,,Confederate Avenue,,Baton Rouge,LA,South,Road / Street / Highway,Highway / Roadway,,Unknown,,,,30.3938991,-91.0086291
520,0101000020E61000005386600BB04357C03CD862B7CF163F40,,#REF!,Fort Polk,,Fort Polk,LA,South,Military Base,Military Base,,1941,,http://www.jrtc-polk.army.mil/history.html,,31.089107,-93.0576199
558,0101000020E6100000EED11BEE237657C0864DAE731D224040,o,,City of Stonewall,,Stonewall,LA,South,Municipality,Municipality,,,,https://en.wikipedia.org/wiki/Stonewall_Jackson#Legacy,,32.2665238,-93.845943
821,0101000020E610000039E8120EBD7A53C04EB9C2BB5CFC4040,,46,Confederate Monument,Fort Fisher Historic Site,Wilmington,NC,South,Monument,Monument,,1932,,http://www.wilmingtonandbeaches.com/cw-monuments/,,33.97158,-77.917789
871,0101000020E6100000AEE06D94ABF85AC0865C0421B4204040,,96,Jefferson Davis Highway,,,NM,Not a State,Road / Street / Highway,Highway / Roadway,,,,,,32.2554971,-107.8854724
894,0101000020E61000000B7C45B75E7E53C06C94F59B89F54340,,8,Confederate Soldiers,Buchanan Trail,McConnellsburg,PA,North,Monument,Monument,,1929,,http://www.hmdb.org/marker.asp?marker=27197,,39.918262,-77.974531
1000,0101000020E61000008A4D75125B2554C04263810AA2464140,,97,City of Kershaw,,Kershaw,SC,South,Municipality,Municipality,,1888,,,named for Maj. Gen. Joseph B. Kershaw,34.5518201,-80.5836836
1011,0101000020E61000005ED38382D2B755C05CDC909092004240,o,,Jefferson Davis Drive,,Franklin,TN,South,Road / Street / Highway,Highway / Roadway,,Unknown,,,,36.0044728,-86.8722235
1049,0101000020E61000002588049D5A7E56C07313B534B7904140,,#REF!,"Captain J. Harvey Mathes, 37th Tennessee C.S.A.",Memphis Park,Memphis,TN,South,Monument,Monument,,Unknown,,http://collections.si.edu/search/tag/tagDoc.htm?recordID=siris_ari_311874&hlterm=confederate,,35.130591,-89.9742806
1125,0101000020E610000077921914F2D757C05785178E31CF3D40,o,,Robert Lee Road,,Houston,TX,South,Road / Street / Highway,Highway / Roadway,,,,,,29.8093499,-95.3741503
1144,0101000020E6100000D05E7D3CF45E56C0F716201B92224240,o,,Bedford Forrest Lane,,Ridgley,TX,South,Road / Street / Highway,Highway / Roadway,,,,,,36.2700838,-89.483657
1276,0101000020E61000009E6B4E1457AB53C090DB2F9FAC524340,o,,Stuart Street,,New Market,VA,South,Road / Street / Highway,Highway / Roadway,,,,,,38.645893,-78.6771899
1277,0101000020E6100000EC7EBA2649AB53C04AAF720DD8524340,o,,Lee Street,,New Market,VA,South,Road / Street / Highway,Highway / Roadway,,,,,,38.6472184,-78.6763398
1302,0101000020E6100000273F98CA918253C060D8ABD914404340,o,,General Jackson Avenue,,Culpeper,VA,South,Road / Street / Highway,Highway / Roadway,,,,,,38.5006363,-78.0401484
1303,0101000020E6100000E37CA0CB8A8253C059034AF9FF3F4340,o,,General Longstreet Avenue,,Culpeper,VA,South,Road / Street / Highway,Highway / Roadway,,,,,,38.4999992,-78.0397214
1354,0101000020E6100000C99F5EDFBD4853C0999EB0C4036A4340,,36,Lee Street,,Alexandria,VA,South,Road / Street / Highway,Highway / Roadway,,,,http://www.bizjournals.com/washington/breaking_ground/2015/09/how-many-confederacy-tied-alexandria-streets-can.html,,38.82824,-77.1365889
1427,0101000020E61000009AED0A7DB0FC52C0ED39FAA93BAD4240,,59,Confederate Monument,Court Green,Eastville,VA,South,Monument / Courthouse,Monument,Courthouse Grounds,1913,,http://collections.si.edu/search/tag/tagDoc.htm?recordID=siris_ari_326621&hlterm=confederate,,37.3533833,-75.948272
89,0101000020E6100000D0DB8E5F2EED55C09B4242EFE85D4140,,51,Confederate Veterans Monument,Colbert County Courthouse,Tuscumbia,AL,South,Monument / Courthouse,Monument,Courthouse Grounds,1911,,http://www.waymarking.com/waymarks/WMNFM3_Colbert_County_Confederate_Veterans_Memorial_Tuscumbia_AL,,34.7336711,-87.7059554
95,0101000020E61000003F32C280CAD855C058BB37D08D644140,,57,City of Wheeler,,Wheeler,AL,South,Municipality,Municipality,,Unknown,,"https://en.wikipedia.org/wiki/Wheeler,_Alabama",,34.7855778,-87.3873598
141,0101000020E6100000BC45BB65625857C0B8F589F2BBE64040,,21,Confederate War Memorial,,Prescott,AR,South,Monument,Monument,,1964,,http://www.arkansasties.com/WhatsNew/2005/03/civil-war-memorial-prescott/,could not verify,33.8026107,-93.3810057
239,0101000020E61000002E84E6841ADB54C05D1CF0541B233F40,,#REF!,Cook County,,Adel,GA,South,County,County,,1918,,"https://en.wikipedia.org/wiki/Cook_County,_Georgia",,31.1371358,-83.4234936
341,0101000020E6100000FF801832E85155C0B94CF2C8C45C4140,,35,Walker County Confederate Monument,John B. Gordon Hall. N. Main St.,Lafayette,GA,South,Monument,Monument,,1909,,http://collections.si.edu/search/tag/tagDoc.htm?recordID=siris_ari_337712&hlterm=confederate,,34.7247554,-85.2797971
417,0101000020E6100000FA3779DB162A5DC0E5AD049CEF124740,,111,Robert E. Lee Creek,,Boise National Forest,ID,Not a State,River / Creek / Lake,Body of Water,,Unknown,,"Geographic Names Information System, USGS",,46.1479373,-116.6576451
446,0101000020E6100000B86CBE5BEA4B56C09DF1D82A1C494240,,14,Confederate Memorial Gateway,,Hickman,KY,Border,Monument,Monument,,1965,,https://en.wikipedia.org/wiki/Confederate_Memorial_Gateway_in_Hickman,National Reigster of Historic Places,36.5711721,-89.1861791
475,0101000020E6100000B9A1CE810A3855C07A9EE4B3E1174340,,43,Jefferson Davis Statue,Kentucky Rotunda (Capitol),Frankfort,KY,Border,Monument,Monument,State Capitol Grounds,1936,,"Geographic Names Information System, USGS",,38.1865754,-84.8756413
580,0101000020E6100000AA104537B19756C0811F7AF76C454340,o,,General Lee Drive,,Sappington,MO,Border,Road / Street / Highway,Highway / Roadway,,,,,,38.5423879,-90.3701914
645,0101000020E6100000818C800A471F56C046A1760998583E40,o,,Magruder Road,,Moss Point,MS,South,Road / Street / Highway,Highway / Roadway,,,,,,30.3460699,-88.488711
841,0101000020E61000001A756330B54B54C0E326593D16A24140,,66,Confederate Soldiers Monument,Gaston County Courthouse. 325 N. Marietta St.,Gastonia,NC,South,Monument / Courthouse,Monument,Courthouse Grounds,1912,,http://docsouth.unc.edu/commland/monument/273/,,35.2663037,-81.1829339
1013,0101000020E6100000DD96C805E76256C0A3D75537CDE14140,o,,Jefferson Davis Highway,,Ripley,TN,South,Road / Street / Highway,Highway / Roadway,,Unknown,,,,35.7640752,-89.5453505
1038,0101000020E610000085048C2E6F0055C01FF9DE3A5AF74140,,2,Lee Highway,,,TN,,Road / Street / Highway,Highway / Roadway,,,,,,35.9324411,-84.006786
1051,0101000020E6100000F766406260CD55C029B8B30AF6C54140,,#REF!,Confederate Monument,Town Square Main Street,Mount Pleasant,TN,South,Monument,Monument,,1907,,http://collections.si.edu/search/tag/tagDoc.htm?recordID=siris_ari_310335&hlterm=confederate,,35.5465711,-87.2090078
1172,0101000020E6100000D2BD565B949757C0A2410A9E42444040,,21,Home of Last Texas Confederate Governor Pendleton Murrah,1207 S. Washington,Marshall,TX,South,Monument,Monument,,1963,,http://atlas.thc.state.tx.us/Details/5203010199,"Born South Carolina. Successful lawyer and businessman in Marshall. Elected to Texas Legislature 1857. At start of Civil War, served as colonel 14th Texas Cavalry. Governor 1863-1865, the most trying years of Confederacy. Debt, need, dependents of soldiers, and Confederate demands for more men and supplies all plagued his tenure. Conditions at time are shown by fact that cake served at his inaugural state dinner was made of corn meal. Early in his term, the South was split in two by loss of Mississippi River. Texas became the main source of supply, food and arms for western half.",32.533283,-94.36842998
1176,0101000020E610000020205F4205E857C0990645F300C23F40,,25,John H. Reagan Statue,John H. Reagan Park,Palestine,TX,South,Monument,Monument,,1911,,http://collections.si.edu/search/tag/tagDoc.htm?recordID=siris_ari_339506&hlterm=confederate,,31.757827,-95.625321
1359,0101000020E6100000C99F5EDFBD4853C0999EB0C4036A4340,,41,Quantrell Avenue,,Alexandria,VA,South,Road / Street / Highway,Highway / Roadway,,,,http://www.bizjournals.com/washington/breaking_ground/2015/09/how-many-confederacy-tied-alexandria-streets-can.html,,38.82824,-77.1365889
1,0101000020E6100000DD787764ACD855C046E22F7777674140,,,Wheeler Lake,Tennessee River,Decatur,AL,South,River / Creek / Lake,Body of Water,,1936,,http://www.wheelerlake.info/,Created by Wheeler Dam (https://en.wikipedia.org/wiki/Wheeler_Dam),34.8083333,-87.385522
2,0101000020E6100000B80CEEBD2EC155C09B2ED516E8334040,,1,Edmund Pettus Bridge,,Selma,AL,South,Bridge,Bridge,,1940,,http://www.smithsonianmag.com/history/who-was-edmund-pettus-180954501/?no-ist,,32.4055203,-87.0184779
3,0101000020E610000066B04E3AB69855C04EB7EC10FF2B4040,o,,Sons of Confederate Veterans Commemorative License Plate,,Montgomery,AL,South,Commemorative License Plate,Commemorative License Plate,,,,http://www.huffingtonpost.com/2015/06/23/confederate-flag-license-plates_n_7647208.html,,32.3437215,-86.3861223
4,0101000020E6100000B70FD48448A855C09038BFBC5B6B4040,,1,Chilton County,,Clanton,AL,South,County,County,,1868,,"https://en.wikipedia.org/wiki/Chilton_County,_Alabama",,32.8387371,-86.6294262
5,0101000020E610000059EA6A3C22E655C0E188FF852F5A4040,,2,Hale County,,Greensboro,AL,South,County,County,,1867,,"https://en.wikipedia.org/wiki/Hale_County,_Alabama",,32.7045753,-87.5958396
6,0101000020E610000019A4E029646555C0CBC1C7BB7ED24040,,3,Cleburne County,,Heflin,AL,South,County,County,,1866,,"https://en.wikipedia.org/wiki/Cleburne_County,_Alabama",,33.6444926,-85.5842385
7,0101000020E6100000D34F38BB355855C0C23AE9D89C524040,,4,Lee County,,Opelika,AL,South,County,County,,1866,,"https://en.wikipedia.org/wiki/Lee_County,_Alabama",,32.6454116,-85.3782795
8,0101000020E6100000A8328CBBC16D55C010255AF278124040,,5,Bullock County,,Union Springs,AL,South,County,County,,1866,,"https://en.wikipedia.org/wiki/Bullock_County,_Alabama",,32.144316,-85.7149495
9,0101000020E6100000ED7E15E0BB9855C096BA1A8F082C4040,,6,Alabama Coat of Arms,,Montgomery,AL,South,Flag,Flag,,1923,,https://en.wikipedia.org/wiki/Coat_of_arms_of_Alabama,"Besides being used by itself, the coat of arms is used on at least 7 governmental seals of the state, as well as the flag of the governor of Alabama.",32.3440112,-86.386467
10,0101000020E6100000707BDD7D699255C072A609DB4F2F4040,o,,Beauregard Street,,Montgomery,AL,South,Road / Street / Highway,Highway / Roadway,,,,,,32.3696245,-86.2876887
11,0101000020E61000005B3E37D92B0656C09F4D582C8F3F3E40,o,,Beauregard Street,,Dauphin Island,AL,South,Road / Street / Highway,Highway / Roadway,,,,,,30.2482784,-88.0964263
12,0101000020E61000000F046D17BF9755C00341800C1D3F4040,o,,Robert E. Lee Drive,,Millbrook,AL,South,Road / Street / Highway,Highway / Roadway,,,,,,32.493074,-86.3710383
13,0101000020E61000004A383EA429A455C0FC389A232BC54040,o,,Robert E. Lee Street,,Leeds,AL,South,Road / Street / Highway,Highway / Roadway,,,,,,33.540379,-86.5650416
14,0101000020E610000025F1A8E793A455C0397AA12534CD4040,o,,Robert Lee Street,,Trussville,AL,South,Road / Street / Highway,Highway / Roadway,,,,,,33.6031539,-86.5715274
15,0101000020E6100000E8AB9AD65CD555C07196ED9E97833F40,o,,Robert Lee Street,,Monroeville,AL,South,Road / Street / Highway,Highway / Roadway,,,,,,31.5140323,-87.3337914
16,0101000020E6100000E8AB9AD65CD555C07196ED9E97833F40,o,,Confederate Circle,,Monroeville,AL,South,Road / Street / Highway,Highway / Roadway,,,,,,31.5140323,-87.3337914
17,0101000020E6100000E8AB9AD65CD555C07196ED9E97833F40,o,,Stonewall Lane,,Monroeville,AL,South,Road / Street / Highway,Highway / Roadway,,,,,,31.5140323,-87.3337914
18,0101000020E61000004229102CFD0456C0C28AAE66F8A83E40,o,,Robert E. Lee Street,,Mobile,AL,South,Road / Street / Highway,Highway / Roadway,,,,,,30.6600403,-88.0779524
19,0101000020E6100000F52A8DF3120556C03E912749D7A83E40,o,,Johnston Street,,Mobile,AL,South,Road / Street / Highway,Highway / Roadway,,,,,,30.659535,-88.0792817
20,0101000020E6100000B773AB31320556C0DB2F44F3A5A83E40,o,,Van Dorn Street,,Mobile,AL,South,Road / Street / Highway,Highway / Roadway,,,,,,30.6587822,-88.0811886
21,0101000020E61000002E59709A190556C03C376DC669A83E40,o,,Forrest Street,,Mobile,AL,South,Road / Street / Highway,Highway / Roadway,,,,,,30.657864,-88.0796877
22,0101000020E61000004BD3FB21110556C06EDA8CD310A93E40,o,,Polk Street,,Mobile,AL,South,Road / Street / Highway,Highway / Roadway,,,,,,30.660413,-88.0791707
23,0101000020E610000021A00C9F3E0356C08016A64AEFB23E40,o,,Beauregard Street,,Mobile,AL,South,Road / Street / Highway,Highway / Roadway,,,,,,30.6989638,-88.0506971
24,0101000020E6100000570F4EFAB1B855C0BA394B7FE5DD4040,o,,Robert E. Lee Drive,,Gardendale,AL,South,Road / Street / Highway,Highway / Roadway,,,,,,33.7335662,-86.8858629
25,0101000020E61000005A0AED412DFC55C0867B760A032A4140,o,,Robert E. Lee Drive,,Hodges,AL,South,Road / Street / Highway,Highway / Roadway,,,,,,34.3282178,-87.9402623
26,0101000020E61000003EF83F76CD0D56C0A5D189A999484040,o,,Jefferson Davis Drive,,Livingston,AL,South,Road / Street / Highway,Highway / Roadway,,,,,,32.5671894,-88.2156654
27,0101000020E61000003EF83F76CD0D56C0A5D189A999484040,o,,Lee Street,,Livingston,AL,South,Road / Street / Highway,Highway / Roadway,,,,,,32.5671894,-88.2156654
28,0101000020E61000003EF83F76CD0D56C0A5D189A999484040,o,,Hood Street,,Livingston,AL,South,Road / Street / Highway,Highway / Roadway,,,,,,32.5671894,-88.2156654
29,0101000020E61000003EF83F76CD0D56C0A5D189A999484040,o,,Longstreet Drive,,Livingston,AL,South,Road / Street / Highway,Highway / Roadway,,,,,,32.5671894,-88.2156654
30,0101000020E61000003EF83F76CD0D56C0A5D189A999484040,o,,Forrest Drive,,Livingston,AL,South,Road / Street / Highway,Highway / Roadway,,,,,,32.5671894,-88.2156654
31,0101000020E61000003EF83F76CD0D56C0A5D189A999484040,o,,Stonewall Street,,Livingston,AL,South,Road / Street / Highway,Highway / Roadway,,,,,,32.5671894,-88.2156654
32,0101000020E61000003EF83F76CD0D56C0A5D189A999484040,o,,Morgan Drive,,Livingston,AL,South,Road / Street / Highway,Highway / Roadway,,,,,,32.5671894,-88.2156654
33,0101000020E6100000D943FB58C1F855C0747973B856873E40,o,,Jeff Davis Street,,Fair Hope,AL,South,Road / Street / Highway,Highway / Roadway,,,,,,30.528667,-87.886801
34,0101000020E6100000FECA9420ED6A55C069DD06B5DF6C3F40,o,,Stonewall Circle,,Ozark,AL,South,Road / Street / Highway,Highway / Roadway,,,,,,31.4252885,-85.6707231
35,0101000020E610000098022DB8FA6A55C009DD2571566C3F40,o,,Jeb Stewart Place,,Ozark,AL,South,Road / Street / Highway,Highway / Roadway,,,,,,31.423194,-85.6715527
36,0101000020E6100000E708CF3A99C455C083EF479BF49F4040,,1,Confederate Parkway,,McCalla,AL,South,Road / Street / Highway,Highway / Roadway,,Unknown,,http://www.tannehill.org/,,33.2496523,-87.0718524
37,0101000020E6100000B87DEAB35E9455C00BDB0539DE2E4040,,2,Jefferson Davis Avenue,,Montgomery,AL,South,Road / Street / Highway,Highway / Roadway,,,,,,32.3661567,-86.3182802
38,0101000020E6100000D310B0B1260256C08BE83290C2563F40,,1,Jefferson Davis Highway,,,AL,South,Road / Street / Highway,Highway / Roadway,,,,,,31.3389063,-88.0336117
39,0101000020E6100000C14A4FA2EFC955C02AEBED85B8524140,,2,Lee Highway,,,AL,South,Road / Street / Highway,Highway / Roadway,,,,,,34.6462562,-87.1552511
40,0101000020E61000004BD4C1B0329355C05A000979F32E4040,,3,Robert E. Lee Day,,Montgomery,AL,South,Holiday,Holiday / Observances,,Unknown,,https://personnel.alabama.gov/Downloads/StateHolidays.pdf,Occurs in conjunction with MLK day. State Observed.,32.3668052,-86.2999689
41,0101000020E61000004BD4C1B0329355C05A000979F32E4040,,4,Jefferson Davis' Birthday,,Montgomery,AL,South,Holiday,Holiday / Observances,,,,https://personnel.alabama.gov/Downloads/StateHolidays.pdf,Occurs on or around June 6. State Observed,32.3668052,-86.2999689
42,0101000020E61000004BD4C1B0329355C05A000979F32E4040,,5,Confederate Memorial Day,,Montgomery,AL,South,Holiday,Holiday / Observances,,,,https://personnel.alabama.gov/Downloads/StateHolidays.pdf,Occurs the last Monday in April. State Observed,32.3668052,-86.2999689
43,0101000020E6100000F9AEF7D1DFF555C0F9415DA450414040,,6,Fort Rucker,,Fort Rucker,AL,South,Military Base,Military Base,,1942,,https://en.wikipedia.org/wiki/Fort_Rucker,,32.5102735,-87.8417859
44,0101000020E6100000EC09B721EB7455C083C4D1B073D44040,,7,Major John Pelham Monument,Quintard Ave.,Anniston,AL,South,Monument,Monument,,1905,,http://www.myfoxal.com/story/29539478/anniston-council-to-vote-next-week-on-confederate-battle-flag-ban,,33.6597806,-85.8268513
45,0101000020E6100000220505943C7354C0AE134D56FB343F40,,8,Confederate Soldiers & Sailors Monument,Linn Park,Birmingham,AL,South,Monument,Monument,,1905,,http://www.al.com/news/birmingham/index.ssf/2015/07/a_close-up_look_at_birminghams.html,,31.2069601,-81.8005724
46,0101000020E6100000183D5C17A36255C067A08DB7F01D4140,,9,General N.B. Forrest Captured Col. A.D. Straight monument,Al-9,Cedar Bluff,AL,South,Monument,Monument,,1939,,http://www.lat34north.com/historicmarkersal/MarkerDetail.cfm?KeyID=10-03&MarkerTitle=Gen.%20N.B.%20Forrest%20Captured%20Col.%20A.D.%20Streight%20Monument,"This marks the place where Gen. N.B. Forrest with 322 men captured Col. A.D. Streight with 466 men May 3, 1863. Erected by Forney District Ala. United Daughters of The Confederacy June 3, 1939",34.2339086,-85.5412043
47,0101000020E6100000C713419C87F555C04E5D54E641424040,,10,Confederate Monument,North Main And West Capitol,Demopolis,AL,South,Monument,Monument,,1910,,http://www.waymarking.com/waymarks/WM45EE_Confederate_Memorial_Demopolis_AL,,32.5176361,-87.836402
48,0101000020E6100000F9AEF7D1DFF555C0F9415DA450414040,,11,Breastworks Confederate Memorial,West Pettus St.,Demopolis,AL,South,Monument,Monument,,1941,,http://www.waymarking.com/waymarks/WM7NM1_Demopolis_Breastworks_Confederate_Memorial_Demopolis_Alabama,,32.5102735,-87.8417859
49,0101000020E6100000B4A041542B4B55C0246AFD88BAC83F40,,12,Confederate Monument,Broad Ave And Eufaula Ave.,Eufaula,AL,South,Monument,Monument,,1904,,http://collections.si.edu/search/tag/tagDoc.htm?recordID=siris_ari_329826&hlterm=confederate,,31.7840963,-85.1745196
50,0101000020E6100000FEB1B5630F6E55C012CC8756DD384140,,13,Confederate Monument,Union Park,Fort Payne,AL,South,Monument,Monument,,1913,,http://www.discoverlookoutmountain.com/history-confederate-monument.shtml,,34.4442547,-85.7196893
179,0101000020E61000001370BEC7CF8754C0F90F8EFE3C483E40,,11,Baker County,,Macclenny,FL,South,County,County,,1861,,"https://en.wikipedia.org/wiki/Baker_County,_Florida",,30.2821807,-82.1220569
51,0101000020E61000000A794EC46C8055C04CC11A67D3014140,,14,Emma Sansom and Nathan Bedford Forrest Monument,1St St. And Broad,Gadsden,AL,South,Monument,Monument,,1907,,http://collections.si.edu/search/tag/tagDoc.htm?recordID=siris_ari_320332&hlterm=confederate,,34.014264,-86.0066386
52,0101000020E6100000FC0BF3D4D97B55C090A4FF4014084140,,15,Turkey Town Monument,Us-411,Gadsden,AL,South,Monument,Monument,,Unknown,,"http://www.lat34north.com/historicmarkersal/MarkerDetail.cfm?KeyID=28-27&MarkerTitle=Turkey%20Town%20Monument; http://www.americanmemorialsdirectory.com/alabama.html",,34.0631181,-85.9351704
53,0101000020E610000019236D3E89A755C068DA6A7B60D43F40,,16,Butler County Confederate Memorial,South Park Street & West Commerce Street,Greenville,AL,South,Monument,Monument,,1903,,http://www.greenville-alabama.com/Sites/Greenville/Documents/Chamber/____REVISED%20Tourist%20Brochure.pdf,,31.8295972,-86.6177517
54,0101000020E6100000F66283E04CFF55C0CA4D79196A0D4140,,17,Confederate Veterans Bicentennial Memorial,"Military Street, Marion County Courthouse",Hamilton,AL,South,Monument,Monument,,1977,,http://www.hmdb.org/marker.asp?marker=80883,,34.1048004,-87.9890672
56,0101000020E610000093FFC9DFBD7055C060E4654D2CE84040,,19,Confederate Monument,3-75 Public Square W,Jacksonville,AL,South,Monument,Monument,,1910,,http://collections.si.edu/search/tag/tagDoc.htm?recordID=siris_ari_328901&hlterm=confederate,,33.813852,-85.761589
57,0101000020E610000017E64EFA8C6155C0900E0F61FC084040,,20,Town of Midway Marker,Midway City Office Building. Railroad St.,Midway,AL,South,Monument,Monument,,2010,,http://www.waymarking.com/waymarks/WMFN36,"Pioneer Samuel Feagin Sr. settled the Village of Midway in 1836. He came from Jones County, Georgia and established his residence at what is still called “The Old Feagin Place.” Samuel purchased a large acreage of land and sold it to incoming settlers. He built a log cabin with rooms above where travelers were accommodated overnight. It was also used as a stagecoach stop for those traveling from Eufaula to Tuskegee. On July 11, 1813 the Midway Post Office was established and Samuel Feagin was the first postmaster. On February 23, 1870, the town of Midway was incorporated. The business part of Midway was originally built around a square. A fire destroyed most of this area. The settlers rebuilt their businesses and continued to grow and thrive with eight dry goods and grocery stores, two houses of entertainment, one livery, and a large manufacturing establishment for carriages and buggies. The lower section of Midway, at the Central of Georgia Railroad, was once called James, Alabama. On March 18, 1903, the Union Springs Herald stated the Town of Midway and James had grown not only in population but businesses that included a drugstore, cotton ginnery, dry goods, post office, Midway and James Bank, train station, funeral home, barber shop and town hall. A granite boulder, located was erected to commemorates the Jefferson Davis Highway and Soldiers of the Confederacy. Midway has several sites listed on the Alabama Register of Landmarks and Heritage, with one listed on the National Register of Historic Places.",32.070202,-85.5242296
58,0101000020E610000070AB6A93549855C02A920ABEC4414040,,21,Robinson Springs Camp Confederate Monument,5899 Main Street And Monument Drive,Millbrook,AL,South,Monument,Monument,,1913,,http://www.hmdb.org/marker.asp?marker=83692,,32.5138166,-86.3801621
59,0101000020E610000022DFA5D4250456C0E38C614ED0AE3E40,,22,"10"" Rifled Sea Coast Columbiad",65 Government Street,Mobile,AL,South,Monument,Monument,,2004,,http://www.hmdb.org/marker.asp?marker=86727,,30.682866,-88.064809
60,0101000020E610000022DFA5D4250456C0E38C614ED0AE3E40,,23,Admiral Raphael Semmes Statue,65 Government Street,Mobile,AL,South,Monument,Monument,,2000,,"http://www.civilwaralbum.com/misc16/mobile1.htm; http://www.americanmemorialsdirectory.com/alabama.html",,30.682866,-88.064809
61,0101000020E610000064607880829355C0F9ABB65153304040,,24,Dexter Avenue Monument,Dexter Ave.,Montgomery,AL,South,Monument,Monument,,1942,,http://www.waymarking.com/waymarks/WMD6H9,"Dexter Avenue
Formerly Market Street
This street was named to honor Andrew Dexter one of the founders of Montgomery
Along this street moved the inaugural parade of Jefferson Davis when he took the oath of office as President of the Confederate States of America February 18, 1861
Dixie was played as a band arrangement for the first time on this occasion.
Placed by by Sophie Bibb Chapter, U.D.C.",32.3775427,-86.3048402
62,0101000020E61000004BD4C1B0329355C05A000979F32E4040,,25,Robert E. Lee Statue,Robert E. Lee High School,Montgomery,AL,South,Monument,Monument,,1908,,http://www.waymarking.com/waymarks/WMD8HW_General_Robert_E_Lee_Montgomery_Alabama,,32.3668052,-86.2999689
63,0101000020E61000004BD4C1B0329355C05A000979F32E4040,,26,"John Allan Wyeth — M.D., L.L.D. Marker",S. Bainbridge St. And Dexter Ave. Near Alabama State Capitol,Montgomery,AL,South,Monument,Monument,,Unknown,,"http://www.lat34north.com/historicmarkersal/MarkerDetail.cfm?KeyID=51-131&MarkerTitle=John%20Allan%20Wyeth%20%3F%20M.D.%2C%20L.L.D.; http://www.americanmemorialsdirectory.com/alabama.html","Confederate Soldier Surgeon and Author Born Marshall County, Ala. 1845 Died New York City 1922 Founder of the New York Polyclinic Medical School and Hospital and of Graduate Medical and Surgical Teaching in America.",32.3668052,-86.2999689
64,0101000020E6100000BCAE5FB01B5855C0957B8159A1524040,,27,Confederate Monument,Monument Park. 8Th St. And Geneva Ave.,Opelika,AL,South,Monument,Monument,,1911,,http://collections.si.edu/search/tag/tagDoc.htm?recordID=siris_ari_320514&hlterm=confederate,"go back and make sure it is explicitly Confederate, can't read from street view",32.645549,-85.37669
65,0101000020E6100000A393A5D6FB6855C064FB90B75C753F40,,28,Dale County Confederate Soldiers Monument,Dale County Courthouse,Ozark,AL,South,Monument,Monument,,1910,,"http://www.wpxi.com/places/ozark_dale-county-confederate-soldier-monumen/; http://www.americanmemorialsdirectory.com/alabama.html; http://capitolshots.com/courthouse-photos/alabama-courthouses/dale-county-courthouse/ ",,31.458446,-85.640371
66,0101000020E6100000D1E80E62679E55C079CE16105A3B4040,,29,Confederate Monument,Autauga County Courthouse.,Prattville,AL,South,Monument,Monument,,1908,,http://collections.si.edu/search/tag/tagDoc.htm?recordID=siris_ari_320522&hlterm=confederate,,32.463686,-86.47506
67,0101000020E61000002C802903079E55C0F0DB10E3353B4040,,30,Prattville Dragoons Memorial Monument (SCV),Prattville Primary School. Washington St. And E. Fourth St.,Prattville,AL,South,Monument,Monument,,2002,,http://theprattvilledragoons.blogspot.com/2015/04/prattville-dragoons-monuments.html,,32.462582,-86.469178
68,0101000020E6100000E0C1AAD532D555C0118C834BC7674140,,31,General Joseph Wheeler,4401 Mclean Drive,Rogersville,AL,South,Monument,Monument,,2006,,http://www.hmdb.org/marker.asp?marker=84295,,34.8107695,-87.3312277
69,0101000020E61000002504ABEAE5C055C047AB5AD251344040,,32,Selma Navy Yard Memorial,Water Ave. And Sylvan St.,Selma,AL,South,Monument,Monument,,1917,,http://www.lat34north.com/historicmarkersal/MarkerDetail.cfm?KeyID=24-63&MarkerTitle=Selma%20Navy%20Yard%20and%20Ordnance%20Works,,32.408747,-87.014033
70,0101000020E610000021BCE24E8EC155C0EFF08DD772364040,,33,Defense of Selma Memorial,Range St. And 4Th Ave,Selma,AL,South,Monument,Monument,,1907,,http://www.lat34north.com/historicmarkersal/MarkerDetail.cfm?KeyID=24-56&MarkerTitle=Defense%20of%20Selma%20Memorial,"
",32.4253797,-87.0243108
72,0101000020E6100000EB866D8B327E55C058E71890BDCE3F40,,34,"""Comrades"" Confederate Monument",Court Square,Troy,AL,South,Monument,Monument,,1908,,http://siris-artinventories.si.edu/ipac20/ipac.jsp?&profile=all&source=~!siartinventories&uri=full=3100001~!327325~!0#focus,,31.80758,-85.971835
73,0101000020E6100000FA25E2ADF3E255C086E5CFB7059B4040,,35,University of Alabama Civil War Memorial,University Of Alabama,Tuscaloosa,AL,South,Monument,Monument,,1914,,http://www.hmdb.org/marker.asp?marker=33654,,33.211112,-87.546123
74,0101000020E610000097AAB4C5356C55C02DFEB62748364040,,36,Tuskegee Confederate Monument,Town Square,Tuskegee,AL,South,Monument,Monument,,1906,,https://www.loc.gov/item/2010640065/,,32.424077,-85.690782
169,0101000020E610000031934D5E894A5DC01DC29DB0695B4040,,1,Jefferson Davis Highway,,San Diego,CA,North,Road / Street / Highway,Highway / Roadway,,,,,,32.7141629,-117.1646343
75,0101000020E61000007F880D164E9055C05737DE1D19EB4040,,37,Confederate Monument,St. Clair County Courthouse,Ashville,AL,South,Monument / Courthouse,Monument,Courthouse Grounds,1923,,http://capitolshots.com/courthouse-photos/alabama-courthouses/st-clair-county-courthouse-ashville/,,33.836704,-86.254766
76,0101000020E61000005B5B785E2ABE55C05C59A2B3CC664140,,38,Confederate Soldier Monument,Courthouse Square. Marion St. And Market St.,Athens,AL,South,Monument / Courthouse,Monument,Courthouse Grounds,1909,,http://collections.si.edu/search/tag/tagDoc.htm?recordID=siris_ari_316614&hlterm=confederate,Discussion on petition to not move the monument: http://whnt.com/2015/07/18/rally-for-confederate-monument-at-courthouse-square/,34.803122,-86.971336
77,0101000020E6100000E71725E82F0E56C029CFBC1C760B4040,,39,Confederate Monument,Choctaw County Courthouse,Butler,AL,South,Monument / Courthouse,Monument,Courthouse Grounds,1937,,http://www.ruralswalabama.org/attraction/choctaw-county-courthouse/,,32.089542,-88.221674
78,0101000020E6100000BC5D2F4D110656C03D44A33B88A14040,,40,Confederate Memorial,"Pickens County Courthouse; 100 Court Square, Carrollton, AL 35447",Carrollton,AL,South,Monument / Courthouse,Monument,Courthouse Grounds,1927,,http://www.pickenscountyal.com/living-visiting-pickens-county-2/living-visiting-pickens-county/,,33.26197,-88.094806
79,0101000020E610000036CB65A3736B55C02733DE567A134140,,41,Confederate Memorial,Cherokee County Courthouse,Centre,AL,South,Monument / Courthouse,Monument,Courthouse Grounds,1988,,http://www.waymarking.com/waymarks/WM7JCC_Confederate_Veterans_Memorial_Centre_AL,,34.152171,-85.678933
81,0101000020E6100000C1920612EFBE55C0D5A8D1F58E4D4140,,43,Confederate Monument,Morgan County Courthouse,Decatur,AL,South,Monument / Courthouse,Monument,Courthouse Grounds,1908,,http://siris-artinventories.si.edu/ipac20/ipac.jsp?session=130E1S276R890.18395&limitbox_1=LO01+%3D+ias&menu=search&aspect=Keyword&npp=50&ipp=20&spp=20&profile=ariall&ri=2&source=~%21siartinventories&index=.GW&term=IAS+AL000280+&x=15&y=13&aspect=Keyword,,34.6059253,-86.9833417
82,0101000020E61000005377C0D07EF555C06BA395D63AD54040,,44,Confederate Monument,Fayette County Courthouse. West Columbus St. And South Temple Ave.,Fayette,AL,South,Monument / Courthouse,Monument,Courthouse Grounds,1929,,http://collections.si.edu/search/tag/tagDoc.htm?recordID=siris_ari_328274&hlterm=confederate,,33.6658581,-87.8358652
83,0101000020E6100000BA0B941458EB55C0C381902C60664140,,45,Confederate Monument,Lauderdale County Courthouse. S. Court And E. College,Florence,AL,South,Monument / Courthouse,Monument,Courthouse Grounds,1903,,http://collections.si.edu/search/tag/tagDoc.htm?recordID=siris_ari_330504&hlterm=confederate,,34.79981,-87.677251
84,0101000020E6100000AD742D10F3E555C0C1655FC31D5A4040,,46,Confederate Monument,Hale County Courthouse,Greensboro,AL,South,Monument / Courthouse,Monument,Courthouse Grounds,1904,,http://siris-artinventories.si.edu/ipac20/ipac.jsp?session=12H798K8375O8.2823&profile=ariall&source=~!siartinventories&view=subscriptionsummary&uri=full=3100001~!316672~!3&ri=2&aspect=basic&menu=search&ipp=20&spp=20&staffonly=&term=Outdoor+Sculpture+--+Al,,32.7040333,-87.5929604
85,0101000020E61000002AE109BD7EA555C08F58E608745D4140,,47,Confederate Veteran's Memorial,Madison County Courthouse,Huntsville,AL,South,Monument / Courthouse,Monument,Courthouse Grounds,1905,,http://whnt.com/2015/07/07/huntsville-man-starts-preemptive-petition-to-keep-confederate-monument-outside-madison-co-courthouse/ / http://collections.si.edu/search/tag/tagDoc.htm?recordID=siris_ari_328690&hlterm=confederate,,34.7301036,-86.5858605
86,0101000020E6100000DEFD96A5C2D155C043AA285E65EA4040,,48,Confederate Monument,Walker County Courthouse,Jasper,AL,South,Monument / Courthouse,Monument,Courthouse Grounds,1907,,http://www.confederatedigest.com/2009/10/walker-county-confederate-monument.html,,33.8312185,-87.2775053
87,0101000020E61000007F30F0DCFB0B56C04B3CA06CCA4A4040,,49,Confederate Monument,Sumter County Courthouse,Livingston,AL,South,Monument / Courthouse,Monument,Courthouse Grounds,1909,,http://www.acetowns.com/courthouse-square/,,32.5843025,-88.1872475
88,0101000020E610000046BC2B71D3D255C07AEA47799C3D4140,,50,Confederate Monument,Lawrence County Courthouse,Moulton,AL,South,Monument / Courthouse,Monument,Courthouse Grounds,2006,,http://www.hmdb.org/marker.asp?marker=84311,,34.4813377,-87.2941554
90,0101000020E61000006C263A26669355C02312859675304040,,52,Confederate Monument,Alabama State Capitol,Montgomery,AL,South,Monument,Monument,State Capitol Grounds,1898,,http://siris-artinventories.si.edu/ipac20/ipac.jsp?&profile=all&source=~!siartinventories&uri=full=3100001~!441~!0#focus,,32.3785885,-86.3031097
91,0101000020E61000006A3CC7365F9355C0230C03965C304040,,53,Jefferson Davis Statue,Alabama State Capitol,Montgomery,AL,South,Monument,Monument,State Capitol Grounds,1940,,"Geographic Names Information System, USGS; http://files.usgwarchives.net/al/montgomery/newspapers/statueto1416gnw.txt",,32.3778255,-86.3026864
92,0101000020E610000030AE5D7F379355C0847CD0B359304040,,54,Jefferson Davis' Presidential Star,Alabama State Capitol,Montgomery,AL,South,Monument,Monument,,1897,,"http://www.roadsideamerica.com/story/25296; http://www.waymarking.com/waymarks/WMGGEW_Jefferson_Davis_Presidential_Star_Montgomery_AL",,32.3777375,-86.3002623
93,0101000020E61000000B98C0ADBB5755C070229FFC82454040,,55,"Beauregard, AL (unincorporated area in Lee County)",,Beauregard,AL,South,Municipality,Municipality,,Unknown,,"https://en.wikipedia.org/wiki/Beauregard,_Alabama","*Several things in town also named Beauregard, including Elementary and High School in this area",32.5430599,-85.37083
94,0101000020E6100000903E52E94CA855C050C6F8307B6B4040,,56,City of Clanton,,Clanton,AL,South,Municipality,Municipality,,1866,,"https://en.wikipedia.org/wiki/Clanton,_Alabama",named for James Holt Clanton,32.839697,-86.6296943
96,0101000020E6100000C713419C87F555C04E5D54E641424040,,52,Confederate Park,"Main, Capitol, Walnut, And Washington Sts.",Demopolis,AL,South,Park,Park,,1910,,http://www.nationalregisterofhistoricplaces.com/al/Marengo/state.html,,32.5176361,-87.836402
128,0101000020E6100000C4995FCD819957C013DED4F665B14140,,8,Jefferson Davis Memorial,,Fort Smith,AR,South,Monument,Monument,,1937,,"Encyclopedia of Arkansas, Butler Center for Arksas Studies at the Central Arkansas Library System; http://www.encyclopediaofarkansas.net/encyclopedia/entry-detail.aspx?entryID=4794",http://www.arkansasties.com/Sebastian/JeffersonDavisMemorial.htm,35.3859242,-94.3985475
80,0101000020E610000014083BC5AAC855C066136058FE784040,,42,Confederate Monument,Bibb County Courthouse,Centreville,AL,South,Monument / Courthouse,Monument,Courthouse Grounds,1910,,"http://centrevillealabama.homestead.com/landmarks.html; https://roadtrippers.com/us/centreville-al/attractions/bibb-county-courthouse-confederate-monument?lat=40.80972&lng=-96.67528&z=5",,32.945262,-87.135423
170,0101000020E61000002A1DACFF736A5EC0DF89592F86524240,,2,City of Confederate Corners,,Confederate Corners,CA,North,Municipality,Municipality,,1860s (Late),,"Geographic Names Information System, USGS",,36.64472,-121.66333
97,0101000020E6100000BA0B941458EB55C0C381902C60664140,,53,McFarland Park and Recreation Area,Mcfarland Park,Florence,AL,South,Park,Park,,Unknown,,http://florenceal.org/At_a_Glance/Historical_Markers/index.html,"marker text: This bottom land serves as a reservoir for TVA's flood control program. Florence leases it for recreational purposes when not being used by TVA. Major Robert McFarland, a native of Ireland, his wife, Katie Armstead McFarland, and their seven children resided in the ante-bellum mansion now called Mapleton that overlooked this river bottom. Strawberries were once grown here. Jobless familes were encouraged to plant vegetable gardens here during the Great Depression. Major McFarland rode with Confederate General John Hunt Morgan and became the first cavalryman to leap across the line onto Indiana soil.",34.79981,-87.677251
98,0101000020E61000002F44F3A5DCA755C0F3CB608C48D43F40,,54,Confederate Park,,Greenville,AL,South,Park,Park,,,,http://www.greenville-alabama.com/Sites/Greenville/Documents/Chamber/____REVISED%20Tourist%20Brochure.pdf,,31.829232,-86.6228423
99,0101000020E61000001BA7D71C569E55C0DA8D3EE6035C4040,,55,Confederate Memorial Park,437 Co Rd 63,Marbury,AL,South,Park,Park,,Unknown,,http://www.preserveala.org/confederatepark.aspx?sm=g_d,,32.718869,-86.4740059
100,0101000020E61000008BF3DCE71DD655C0EB43CD469D684140,,56,Joe Wheeler State Park,4401 Mclean Dr.,Rogersville,AL,South,Park,Park,,1949,,http://www.alapark.com/joe-wheeler-state-park,,34.8172997,-87.3455753
101,0101000020E6100000079B3A8F8AC555C0AA2C0ABB281A3F40,,57,Jefferson Davis Community College,220 Alco Drive,Brewton,AL,South,School,School,,1965,,"Geographic Names Information System, USGS",,31.102184,-87.086582
102,0101000020E61000004EF6E0FF589155C059DA4E006A304040,,58,Robert E. Lee High School,225 Ann St.,Montgomery,AL,South,School,School,,1955,82%,,"Common Core of Data, NCES,didn't know,,,,,,,,,,,,,,,",32.3782349,-86.2710571
103,0101000020E610000028E5FF9FD49055C0B58BC45FEE2B4040,,59,Jefferson Davis High School,3420 Carter Hill Rd,Montgomery,AL,South,School,School,,1968,94%,,"Common Core of Data, NCES,,,,,,,,,,,,,,,,",32.3432121,-86.2629776
104,0101000020E6100000E468E965EF5755C068A961646E464040,,60,Beauregard Elementary School,300 Lee Rd 431,Opelika,AL,South,School,School,,Unknown,21%,,"Common Core of Data, NCES,,,,,,,,,,,,,,,,",32.5502439,-85.3739867
105,0101000020E61000001635F33FD45755C01D9D048074464040,,61,Beauregard High School,7343 Al Hwy 51,Opelika,AL,South,School,School,,1923,24%,,"Common Core of Data, NCES,,,,,,,,,,,,,,,,",32.5504303,-85.3723297
106,0101000020E610000036882018510456C02ED10FD9F6D83E40,,62,Robert E. Lee Primary Elementary School,220 Baker Road,Satsuma,AL,South,School,School,,2012,14%,,"Common Core of Data, NCES,,,,,,,,,,,,,,,,",30.8475166,-88.0674496
107,0101000020E6100000B1D2495B01A555C0EC9A351DA6604140,,63,Lee High School,2500 Meridian St,Hunstville,AL ,South,School,School,,1957,83%,"https://en.wikipedia.org/wiki/Lee_High_School_(Huntsville,_Alabama)",,34.7550694,-86.5782078
108,0101000020E610000055C5AFB37CB056C0D2D2CBDE08634140,,64,Lee County,,Marianna,AR,South,County,County,,1873,,"https://en.wikipedia.org/wiki/Lee_County,_Arkansas",,34.7737082,-90.7576112
109,0101000020E6100000BD474783A52B57C0F355F2B1BB994040,o,,Robert E. Lee Street,,El Dorado,AR,South,Road / Street / Highway,Highway / Roadway,,,,,,33.2010405,-92.6819771
110,0101000020E6100000EAC083B0E43257C04B71FA1F052E4140,o,,Robert E. Lee Street,,Malvern,AR,South,Road / Street / Highway,Highway / Roadway,,,,,,34.3595314,-92.7952081
111,0101000020E61000006E11BD31290357C038E3EAB6FAB84140,o,,Jefferson Davis Road,,Heber Springs,AR,South,Road / Street / Highway,Highway / Roadway,,,,,,35.4451512,-92.0493893
112,0101000020E61000005D54E641D50757C0DA73999A046F4140,o,,Jeff Davis Avenue,,Jacksonville,AR,South,Road / Street / Highway,Highway / Roadway,,,,,,34.867328,-92.1223912
113,0101000020E6100000E8B68EBB529E56C0862AEBED85794140,o,,Jeff Davis Street,,Hughes,AR,South,Road / Street / Highway,Highway / Roadway,,,,,,34.9493997,-90.4737996
114,0101000020E610000095A1855F450C57C083DC4598A25C4140,o,,Beauregard Drive,,Little Rock,AR,South,Road / Street / Highway,Highway / Roadway,,,,,,34.723712,-92.1917342
115,0101000020E610000095A1855F450C57C083DC4598A25C4140,o,,Longstreet Drive,,Little Rock,AR,South,Road / Street / Highway,Highway / Roadway,,,,,,34.723712,-92.1917342
116,0101000020E610000095A1855F450C57C083DC4598A25C4140,o,,Claiborne Drive,,Little Rock,AR,South,Road / Street / Highway,Highway / Roadway,,,,,,34.723712,-92.1917342
117,0101000020E610000095A1855F450C57C083DC4598A25C4140,o,,Pickett Drive,,Little Rock,AR,South,Road / Street / Highway,Highway / Roadway,,,,,,34.723712,-92.1917342
118,0101000020E6100000B7442E38038356C0276A696E85C94140,o,,Jeb Stuart Drive,,Wilson,AR,South,Road / Street / Highway,Highway / Roadway,,,,,,35.5743845,-90.0470715
119,0101000020E61000002EBF78ABD3B256C05A8EFC6607844140,o,,Confederate Drive,,Forrest City,AR,South,Road / Street / Highway,Highway / Roadway,,,,,,35.0314759,-90.7941693
120,0101000020E61000004F7A3AB24DD256C0AC657CA9E9AA4040,,,Confederate Street,,Lake Village,AR,South,Road / Street / Highway,Highway / Roadway,,,,,,33.3352558,-91.2859922
121,0101000020E6100000DEC5A0B8881257C0594BA6AF8C5F4140,,1,Confederate Flag Day,,Little Rock,AR,South,Holiday,Holiday / Observances,,,,http://web.lexisnexis.com/research/retrieve?_m=503ebaabd6df8a64b64e668c75247d01&_browseType=TEXTONLY&docnum=1&_fmtstr=FULL&_startdoc=1&wchp=dGLzVzB-zSkAA&_md5=c5571a49c2a78c02c04c90899cfe3b26,"Occurs on the Saturday preceeding Easter. Not State Observed. Listed in Statutes; Not under A.C.A. § 1-5-101 as ""official holidays applicable to the state gov't""",34.7464809,-92.2895948
122,0101000020E6100000DEC5A0B8881257C0594BA6AF8C5F4140,,2,Robert E Lee Day,,Little Rock,AR,South,Holiday,Holiday / Observances,,3rd Monday in Jan,,https://en.wikipedia.org/wiki/Robert_E._Lee_Day,"Occurs in conjunction with MLK day. State Observed. Listed as ""official"" holiday per A.C.A. § 1-5-101.",34.7464809,-92.2895948
123,0101000020E61000007061DD78778757C024EF1CCA50394240,,3,Texas Memorial,,Pea Ridge,AR,South,Monument,Monument,,1964,,http://www.arkansasties.com/WhatsNew/2010/09/texas-memorial/,,36.447778,-94.116667
124,0101000020E610000080C9D7AF05E956C02BBF0CC688E24140,,4,Batesville Confederate Monument,,Batesville,AR,South,Monument,Monument,,1907,,https://en.wikipedia.org/wiki/Batesville_Confederate_Monument,,35.769799,-91.6409721
125,0101000020E6100000221807978E2557C079F06EC042484140,,5,Confederate Veterans’ Memorial,,Benton,AR,South,Monument,Monument,,Unknown,,http://www.waymarking.com/waymarks/WMNHQ2_Confederate_Veterans_Memorial_Saline_County_Veterans_Plaza_Benton_AR,"Encyclopedia of Arkansas, Butler Center for Arksas Studies at the Central Arkansas Library System",34.5645371,-92.586828
126,0101000020E6100000E835D1425D8D57C03B985EACB92F4240,,6,Bentonville Confederate Monument,Town Square. Across From Benton County Courthouse.,Bentonville,AR,South,Monument,Monument,,1908,,https://en.wikipedia.org/wiki/Downtown_Bentonville#Confederate_Soldier_Monument,"Encyclopedia of Arkansas, Butler Center for Arksas Studies at the Central Arkansas Library System / http://collections.si.edu/search/tag/tagDoc.htm?recordID=siris_ari_31984&hlterm=confederate",36.3728538,-94.2088172
178,0101000020E6100000FE1076E50E5C54C0654FA7E100C33A40,,10,Hendry County,,LaBelle,FL,South,County,County,,1923,,"https://en.wikipedia.org/wiki/Hendry_County,_Florida",,26.7617322,-81.4384092
129,0101000020E61000000E83F92BE44657C0416A6EE0691D4240,,9,Confederate Veterans Memorial,Boone County Courthouse,Harrison,AR,South,Monument,Monument,,1986,,"Encyclopedia of Arkansas, Butler Center for Arksas Studies at the Central Arkansas Library System; http://www.encyclopediaofarkansas.net/encyclopedia/entry-detail.aspx?entryID=4794; http://www.arkansasties.com/WhatsNew/2009/04/harrison-confederate-memorial/; http://www.waymarking.com/waymarks/WMFZ72_Harrison_Confederate_Marker_Harrison_AR",,36.2297936,-93.1076765
130,0101000020E6100000A8A0EC77F24357C0F878D78F033F4140,,10,Hot Springs Confederate Monument,Landmark Plaza,Hot Springs,AR,South,Monument,Monument,,1934,,"Encyclopedia of Arkansas, Butler Center for Arksas Studies at the Central Arkansas Library System / http://collections.si.edu/search/tag/tagDoc.htm?recordID=siris_ari_314025&hlterm=confederate",http://www.civilwarbuff.org/Places/Garland/ConfederateMemorial/Confederate.htm,34.4922962,-93.0616741
131,0101000020E6100000E94C350ED0D356C0766D6FB724D24140,,11,Jackson County Confederate Memorial,"Jacksonport State Park. End Of Mall, Washington St And Avenue St.",Jacksonport,AR,South,Monument,Monument,,1914,,"Encyclopedia of Arkansas, Butler Center for Arksas Studies at the Central Arkansas Library System / http://collections.si.edu/search/tag/tagDoc.htm?recordID=siris_ari_336177&hlterm=confederate",,35.6417455,-91.3095737
132,0101000020E6100000DEC5A0B8881257C0594BA6AF8C5F4140,,12,Memorial to Company A Confederate Soldiers,Mcarthur Park. Northeast Corner Of Museum Of Natural History,Little Rock,AR,South,Monument,Monument,,1911,,http://collections.si.edu/search/tag/tagDoc.htm?recordID=siris_ari_336176&hlterm=confederate,,34.7464809,-92.2895948
133,0101000020E6100000DEC5A0B8881257C0594BA6AF8C5F4140,,13,Confederate Bench,"503 E 9th St, MacArthur Museum of Arkansas Military History also known as the City Park, the Arsenal, MacArthur Park",Little Rock,AR,South,Monument,Monument,,1936,,"http://www.arkansasties.com/Pulaski/Structures2/MacArthur/Arsenal4.htm; Encyclopedia of Arkansas, Butler Center for Arksas Studies at the Central Arkansas Library System; http://www.encyclopediaofarkansas.net/encyclopedia/entry-detail.aspx?entryID=4794",,34.7464809,-92.2895948
134,0101000020E6100000DEC5A0B8881257C0594BA6AF8C5F4140,,14,Confederate Soldiers Memorial,"On the grounds of the Arkansas State Capitol, Woodlane St & W. 4th St",Little Rock,AR,South,Monument,Monument,,1905,,"http://www.waymarking.com/waymarks/WM99P3_Confederate_Soldiers_Monument_Little_Rock_Arkansas; Encyclopedia of Arkansas, Butler Center for Arksas Studies at the Central Arkansas Library System; http://www.encyclopediaofarkansas.net/encyclopedia/entry-detail.aspx?entryID=4794",,34.7464809,-92.2895948
135,0101000020E6100000DEC5A0B8881257C0594BA6AF8C5F4140,,15,General Thomas J. Churchill Memorial,"300 W Markham St, Old State House Museum",Little Rock,AR,South,Monument,Monument,,1928,,"http://www.arkansasties.com/Pulaski/Structures2/OldStateHouse/State5.htm; Encyclopedia of Arkansas, Butler Center for Arksas Studies at the Central Arkansas Library System; ",,34.7464809,-92.2895948
136,0101000020E6100000DEC5A0B8881257C0594BA6AF8C5F4140,,16,General William Read Scurry Memorial,"300 W Markham St, Old State House Museum",Little Rock,AR,South,Monument,Monument,,1928,,"http://www.arkansasties.com/Pulaski/Structures2/OldStateHouse/State5.htm; Encyclopedia of Arkansas, Butler Center for Arksas Studies at the Central Arkansas Library System; http://www.encyclopediaofarkansas.net/encyclopedia/entry-detail.aspx?entryID=4794",http://www.waymarking.com/waymarks/WMAYZ7_General_William_Read_Scurry_Memorial_Little_Rock_Arkansas,34.7464809,-92.2895948
137,0101000020E6100000DEC5A0B8881257C0594BA6AF8C5F4140,,17,Southern Soldiers Memorial,"300 W Markham St, Old State House Museum",Little Rock,AR,South,Monument,Monument,,Unknown,,"http://www.arkansasties.com/Pulaski/Structures2/OldStateHouse/State5.htm; Encyclopedia of Arkansas, Butler Center for Arksas Studies at the Central Arkansas Library System",,34.7464809,-92.2895948
138,0101000020E610000055C5AFB37CB056C0D2D2CBDE08634140,,18,General Robert E. Lee Monument,City Park,Marianna,AR,South,Monument,Monument,,1913,,"http://www.encyclopediaofarkansas.net/encyclopedia/entry-detail.aspx?entryID=918; National Register of Historic Places",,34.7737082,-90.7576112
139,0101000020E610000056B3CEF83E0F57C06616574BF0E04040,,19,Confederate Captain Richard Tunball Banks Monument,,New Edinburg,AR,South,Monument,Monument,,1864,,"Encyclopedia of Arkansas, Butler Center for Arksas Studies at the Central Arkansas Library System",,33.7573332,-92.2382185
140,0101000020E6100000081EDFDE350057C026E2ADF36F1D4140,,20,Pine Bluff Confederate Monument,"North Side Of Jefferson Cty. Courthouse, Jct. Of Barraque And Main Sts.",Pine Bluff,AR,South,Monument,Monument,,1910,,National Register of Historic Places / http://collections.si.edu/search/tag/tagDoc.htm?recordID=siris_ari_334133&hlterm=confederate,,34.229979,-92.003288
142,0101000020E61000004F19A48570D356C099243BDB480A4240,,22,Confederate War Memorial,,Smithville,AR,South,Monument,Monument,,1996,,http://www.arkansasties.com/WhatsNew/2007/02/smithville/,,36.0803484,-91.3037428
143,0101000020E61000002461DF4E22F656C097F5ACB541FF4040,,23,Star City Confederate Memorial,Sw Corner Of Star City City Sq.,Star City,AR,South,Monument,Monument,,1928,,"National Register of Historic Places; http://www.encyclopediaofarkansas.net/encyclopedia/entry-detail.aspx?entryID=4794; https://en.wikipedia.org/wiki/Star_City_Confederate_Memorial ",,33.9941928,-91.845844
144,0101000020E6100000D6C9198A3B4357C028B9C326320F4140,,24,Arkadelphia Confederate Monument,Clark County Courthouse,Arkadelphia,AR,South,Monument / Courthouse,Monument,Courthouse Grounds,1911,,National Register of Historic Places / http://collections.si.edu/search/tag/tagDoc.htm?recordID=siris_ari_336919&hlterm=confederate,,34.118718,-93.050509
145,0101000020E610000073266DAAEE7956C05019FF3EE3F64140,,25,Confederate War Memorial,Mississippi County Courthouse,Blytheville,AR,South,Monument / Courthouse,Monument,Courthouse Grounds,1934,,"Encyclopedia of Arkansas, Butler Center for Arksas Studies at the Central Arkansas Library System and http://www.arkansasties.com/WhatsNew/2006/03/mississippi-county-courthouse/; http://www.encyclopediaofarkansas.net/encyclopedia/entry-detail.aspx?entryID=4794 ; http://www.arkansasties.com/WhatsNew/wp-content/uploads/2014/03/101.jpg ",,35.92881,-89.905192
228,0101000020E61000009BF4087F500E54C0C98C5CDCEBCD3940,,36,Robert E. Lee Park,Nw 6Th Avenue And Nw 30Th Street,Miami,FL,South,Park,Park,,Unknown,,"Geographic Names Information System, USGS",,25.8043802,-80.2236631
146,0101000020E6100000079964E42C3557C0F94CF6CFD3CA4040,,26,Camden Confederate Women Monument,"Ouichita County Courthouse Lawn, Jefferson St. Between Harrison St. And Scott Alley",Camden,AR,South,Monument / Courthouse,Monument,Courthouse Grounds,1915,,National Register of Historic Places / http://collections.si.edu/search/tag/tagDoc.htm?recordID=siris_ari_321770&hlterm=confederate,,33.584589,-92.830865
147,0101000020E610000005590520A42A57C091D5AD9E939A4040,,27,El Dorado Confederate Monument,"Courthouse Lawn, Near Jct. Of N. Main St. And S. Washington",El Dorado,AR,South,Monument / Courthouse,Monument,Courthouse Grounds,1909,,National Register of Historic Places / http://collections.si.edu/search/tag/tagDoc.htm?recordID=siris_ari_321767&hlterm=confederate,,33.20763,-92.6662674
175,0101000020E6100000D541B9C8984053C029B5728AE9714340,,7,Fighting Joe Wheeler Statue,U.S. Capitol,Washington,DC,Border,Monument,Monument,U.S. Capitol Grounds,1925,,http://www.aoc.gov/capitol-hill/national-statuary-hall-collection/joseph-wheeler,,38.8899396,-77.0093252
148,0101000020E6100000C4995FCD819957C013DED4F665B14140,,28,Fort Smith Confederate Monument,"Courthouse Lawn, Near Jct. Of 6Th St. And Rogers Ave.",Fort Smith,AR,South,Monument / Courthouse,Monument,Courthouse Grounds,1903,,"http://collections.si.edu/search/tag/tagDoc.htm?recordID=siris_ari_336938&hlterm=confederate; http://www.encyclopediaofarkansas.net/encyclopedia/entry-detail.aspx?entryID=4794",,35.3859242,-94.3985475
150,0101000020E61000001DB51DAE30D256C0640C079D6BAA4040,,30,Lake Village Confederate Monument,Chicot County Courthouse. Lakehore.,Lake Village,AR,South,Monument / Courthouse,Monument,Courthouse Grounds,1910,,https://en.wikipedia.org/wiki/Lake_Village_Confederate_Monument,,33.3314091,-91.2842212
151,0101000020E610000083BF5FCC96F956C07D618D0EA3644140,,31,Lonoke Confederate Monument,"Courthouse Lawn, Near Jct. Of 3Rd And Center Sts.",Lonoke,AR,South,Monument / Courthouse,Monument,Courthouse Grounds,1910,,http://www.encyclopediaofarkansas.net/encyclopedia/entry-detail.aspx?entryID=8510,,34.7862261,-91.899829
152,0101000020E6100000FC32BD691F7E56C07580160104DA4140,,32,Confederate Monument,Mississippi County Courthouse,Osceola,AR,South,Monument / Courthouse,Monument,Courthouse Grounds,1934,,"http://www.mcagov.com/history/mississippi-county-courthouse-osceola; http://www.americanmemorialsdirectory.com/arkansas.html",,35.7032472,-89.9706673
153,0101000020E6100000B414DA835AEF56C01692825D03A04140,,33,Searcy Confederate Monument,"Courthouse Lawn, Near Jct. Of W. Arch Ave. And Spring St.",Searcy,AR,South,Monument / Courthouse,Monument,Courthouse Grounds,1917,,http://www.arkansaspreservation.com/National-Register-Listings/PDF/WH2320S.nr.pdf,,35.2501027,-91.7398996
154,0101000020E6100000938FDD054A9657C0782AE09EE7B74140,,34,Van Buren Confederate Monument,Crawford County Courthouse,Van Buren,AR,South,Monument / Courthouse,Monument,Courthouse Grounds,1899,,"Encyclopedia of Arkansas, Butler Center for Arksas Studies at the Central Arkansas Library System / http://collections.si.edu/search/tag/tagDoc.htm?recordID=siris_ari_337919&hlterm=confederate",,35.436756,-94.348268
155,0101000020E610000083AB973AA31257C0C7B71C54875F4140,,35,Confederate War Prisoners Memorial,Arkansas State Capitol,Little Rock,AR,South,Monument,Monument,State Capitol Grounds,Unknown,,http://www.sos.arkansas.gov/Pages/default.aspx,,34.7463174,-92.2912127
156,0101000020E610000083AB973AA31257C0C7B71C54875F4140,,36,Monument to Confederate Soldiers,Arkansas State Capitol. North Lawn At 7Th St.,Little Rock,AR,South,Monument,Monument,State Capitol Grounds,1905,,http://collections.si.edu/search/tag/tagDoc.htm?recordID=siris_ari_334146&hlterm=confederate,,34.7463174,-92.2912127
157,0101000020E610000083AB973AA31257C0C7B71C54875F4140,,37,Monument to Confederate Women,"State Capitol Grounds, Jct. Of W. 7Th And And Marshall Sts.",Little Rock,AR,South,Monument,Monument,State Capitol Grounds,1913,,National Register of Historic Places http://collections.si.edu/search/tag/tagDoc.htm?recordID=siris_ari_314010&hlterm=confederate,,34.7463174,-92.2912127
158,0101000020E6100000D9588979561C57C0B1FCF9B6608B4140,,38,Confederate Soldiers Monument,801 Locust St,Conway,AR,South,Monument / Courthouse,Monument,Courthouse Grounds,1925,,http://www.arkansasties.com/WhatsNew/2006/10/faulkner-county-court-house-2/,,35.088889,-92.442778
159,0101000020E61000000391459A78B256C0E17A14AE47814140,,38,City of Forrest City,,Forrest City,AR,South,Municipality,Municipality,,1870,,"https://en.wikipedia.org/wiki/Forrest_City,_Arkansas",,35.01,-90.788611
160,0101000020E6100000901C9F7FF14857C093E755F88EA24140,,39,Confederate Mothers Memorial Park,Jct. Of Ar 326 And S. Glenwood Ave.,Russellville,AR,South,Park,Park,,Unknown,,National Register of Historic Places,,35.2699881,-93.1397399
161,0101000020E610000094AB0E6F8CB256C0F678C663AB824140,,30,Forrest City Jr. High School,1133 North Division St,Forrest City,AR,South,School,School,,Unknown,81%,,"http://www.reagan1974.com/news.htm,,,,,,,,,,,,,,,,",35.0208554,-90.7898214
162,0101000020E610000049AC7B1AE6B256C005F7A864A5824140,,31,Forrest City High School,467 Victoria St,Forrest City,AR,South,School,School,,1914,82%,,"http://www.houstonchronicle.com/news/education/article/Consensus-far-from-clear-on-renaming-6367549.php,,,,,,,,,,,,,,,,",35.0206724,-90.7952944
163,0101000020E6100000F43C13F55D0157C010CCD1E3F7184140,,32,Forrest Park Prep Preschool,1903 West 34Th St,Pine Bluff,AR,South,School,School,,Unknown,90%,,"http://www.dallasisd.org/Page/2414 / https://www.facebook.com/pages/John-H-Reagan-Elementary-School-Alumni-Faculty-Friends/107476615943283?sk=timeline&ref=page_internal,,,,,,,,,,,,,,,,",34.195065,-92.0213597
164,0101000020E6100000BDF616209B8857C04ADE4AC0F9164240,,33,Robert E. Lee Elem. School,400 Quandt,Springdale,AR,South,School,School,,1951,3%,,"http://www.atlantaga.gov/index.aspx?page=467,http://springdaleles.sharpschool.net/about_us/school_history,,,,,,,,,,,,,,,",36.1794968,-94.1344681
165,0101000020E61000005706D50627835BC07DE36BCF2CA13F40,,34,Jefferson Davis Highway,,,AZ,Not a State,Road / Street / Highway,Highway / Roadway,,1943,,"http://www.waymarking.com/waymarks/WM93QG_Jefferson_Davis_Memorial_Highway_Arizona; http://raycomgroup.worldnow.com/story/29403127/group-targets-confederate-memorials-in-arizona",,31.62959,-110.049257
166,0101000020E61000006ED7F09991075CC050CEAB9564ED4040,,35,Confederate Troops Memorial,Wesley Bolin Memorial Plaza,Phoenix,AZ,Not a State,Monument,Monument,,1961,,"http://www.wesleybolinplaza.com/wp-content/uploads/2014/05/Wesley-Bolin-Plaza-Map.pdf; http://www.americanmemorialsdirectory.com/arizona.html",,33.8546321,-112.1182618
167,0101000020E61000008F47BAB0FFC55BC07DADA64643064140,,36,Confederate Memorial,,Picacho Pass,AZ,Not a State,Monument,Monument,,Unknown,,http://civilwartalk.com/threads/picacho-pass-arizona-the-farthest-battle.95011/,may not be publicly funded,34.0489281,-111.0937311
171,0101000020E6100000802557B1F8EB5EC0FDEE67C240B04340,,3,City of Fort Bragg,,Fort Bragg,CA,North,Municipality,Municipality,,1889,,"Geographic Names Information System, USGS; https://en.wikipedia.org/wiki/Fort_Bragg,_California",,39.3769763,-123.687054
174,0101000020E61000006DB30CCCE54953C09377691E1B734340,,6,Jefferson Davis Senate Desk reserved for Senior Senator of Mississippi,,,DC,Border,Monument,Monument,,Unknown,,http://www.senate.gov/artandhistory/art/special/Desks/hdetail.cfm?id=8,"In 1995 the Senate adopted Senate Resolution 161 (104th Congress, 1st session) introduced by Mississippi Senator Thad Cochran. The resolution specified that the desk once used by Senator Jefferson Davis in the Senate Chamber would henceforth be assigned to the senior senator from Mississippi.",38.8992651,-77.1546507
176,0101000020E610000013EDCFEA898C54C0470AC09A5E5D3C40,,8,Pasco County,,Dade City,FL,South,County,County,,1887,,"https://en.wikipedia.org/wiki/Pasco_County,_Florida",,28.3647248,-82.1959178
177,0101000020E6100000AB819CE6D37754C0E2E6543200A43A40,,9,Lee County,,Fort Myers,FL,South,County,County,,1887,,"https://en.wikipedia.org/wiki/Lee_County,_Florida",,26.640628,-81.8723084
181,0101000020E610000070F9FEBC5F8755C0712C94F194B83E40,,13,Walton County Flag,Walton County Courthouse,Defuniak Springs,FL,South,Flag / Courthouse,Flag,Courthouse Grounds,1871,,http://www.hmdb.org/marker.asp?marker=39775,Flag replaced with 1st CSA flag,30.7210227,-86.1152184
182,0101000020E6100000F5A2D1787D8B54C00BA7BBA1DF453C40,o,,Jeff Davis Drive,,Zephyrhills,FL,South,Road / Street / Highway,Highway / Roadway,,Unknown,,,,28.2729436,-82.1795332
183,0101000020E61000007BC5AE4827E554C032C96DA0651E3E40,o,,North Jeff Davis Avenue,,Perry,FL,South,Road / Street / Highway,Highway / Roadway,,Unknown,,,,30.1187382,-83.5805227
184,0101000020E610000082829C410D6454C081B74082E2B33D40,o,,Robert E. Lee Drive,,East Palatka,FL,South,Road / Street / Highway,Highway / Roadway,,Unknown,,,,29.702675,-81.5633091
185,0101000020E61000009C64F558C48954C0DEF64E1608403E40,o,,Robert E. Lee Lane,,Macclenny,FL,South,Road / Street / Highway,Highway / Roadway,,Unknown,,,,30.2501234,-82.1526091
186,0101000020E6100000F1170EDF9D9754C084B4C6A013063C40,o,,Robert E. Lee Road,,Tampa,FL,South,Road / Street / Highway,Highway / Roadway,,Unknown,,,,28.023737,-82.3690107
187,0101000020E6100000708B43473C4B54C0D6E830BA172F3C40,o,,Robert Lee Road,,St. Cloud,FL,South,Road / Street / Highway,Highway / Roadway,,Unknown,,,,28.1839558,-81.1755541
188,0101000020E61000007D8A2D4E467054C06D4DBA2D915B3E40,o,,General Lee Road,,Jacksonville,FL,South,Road / Street / Highway,Highway / Roadway,,Unknown,,,,30.357684,-81.7542911
189,0101000020E6100000964A2EB5147F54C027D9EA724ABA3E40,o,,General Lee Road,,Hilliard,FL,South,Road / Street / Highway,Highway / Roadway,,Unknown,,,,30.7276985,-81.9856389
190,0101000020E6100000AB9DBC233E0B54C0DA39CD02ED263B40,o,,Southeast General Lee Terrace,,Stuart,FL,South,Road / Street / Highway,Highway / Roadway,,Unknown,,,,27.152054,-80.1756677
191,0101000020E6100000AB483B24EB6954C086A92D7590553E40,o,,Confederate Street,,Jacksonville,FL,South,Road / Street / Highway,Highway / Roadway,,Unknown,,,,30.3342355,-81.6549769
192,0101000020E6100000EF75AD18096F54C0C2A7397991433E40,o,,Confederate Point Road,,Jacksonville,FL,South,Road / Street / Highway,Highway / Roadway,,Unknown,,,,30.2639385,-81.7349302
193,0101000020E61000008A3A730F895354C0EF53556820883C40,,1,Stonewall Jackson Road,,Orlando,FL,South,Road / Street / Highway,Highway / Roadway,,Unknown,,http://www.orlandosentinel.com/news/politics/local/os-orlando-confederate-history-statue-20150725-story.html,,28.5317445,-81.3052405
194,0101000020E610000072005878720E54C00A19236D3E093A40,,2,Forrest Street,,Hollywood,FL,South,Road / Street / Highway,Highway / Roadway,,Unknown,,http://www.sun-sentinel.com/local/broward/hollywood/fl-strret-names-hollywood-vandals-kkk-20150709-story.html,,26.0361088,-80.2257367
195,0101000020E610000064D1CF2F250E54C01B6C45F69C073A40,,3,Lee Street,,Hollywood,FL,South,Road / Street / Highway,Highway / Roadway,,Unknown,,http://www.sun-sentinel.com/local/broward/hollywood/fl-strret-names-hollywood-vandals-kkk-20150709-story.html,,26.0297388,-80.2210197
196,0101000020E61000000CBCA47B671955C0B69D5B8D91773E40,,4,Robert E. Lee Day,,Tallahassee,FL,South,Holiday,Holiday / Observances,,19-Jan,,http://www.tampabay.com/news/humaninterest/today-in-florida-its-robert-e-lee-day/2261887,"Occurs Jan. 19; Not State Observed. Listed in State Statutes. ""But according to Florida Statute 683.01, this date each year is a legal holiday worth celebrating: Robert E. Lee Day.""",30.4670647,-84.3969411
197,0101000020E61000000CBCA47B671955C0B69D5B8D91773E40,,5,Confederate Memorial Day,,Tallahassee,FL,South,Holiday,Holiday / Observances,,26-Apr,,http://www.leg.state.fl.us/statutes/index.cfm?App_mode=Display_Statute&Search_String=&URL=0600-0699/0683/Sections/0683.01.html,Occurs on Apr. 26. Not State Observed. Listed in Statutes.,30.4670647,-84.3969411
198,0101000020E61000004E95EF1989A355C0645DDC4603C43E40,,6,Confederate Park Monument,North Ferdon Blvd And East 1St Avenue,Crestview,FL,South,Monument,Monument,,1958,,http://www.hmdb.org/marker.asp?marker=86845,Dedicated to Uncle Bill Lundy Florida's Last Confederate Veteran 1848 — 1957 And All Confederate Veterans of Florida,30.765675,-86.555243
199,0101000020E61000000B71F618764154C01C04C2F3F7353D40,,7,Confederate Veterans,J. Saxton Loyd Riverfront Park,Daytona Beach,FL,South,Monument,Monument,,1979,,http://www.hmdb.org/marker.asp?marker=46909,Part of a large veterans moument,29.2108147,-81.0228331
201,0101000020E6100000F1C23126D86954C08EB81160A2553E40,,9,Monument to Women of the Confederacy,"956 Hubbard Street, Confederate Park",Jacksonville,FL,South,Monument,Monument,,1914,,http://www.metrojacksonville.com/article/2009-apr-urban-parks-confederate-park,,30.3345089,-81.6538177
203,0101000020E6100000BEA59C2FF66954C0D0425DFF09553E40,,11,Yellow Bluff Fort Monument,Yellow Bluff Fort Park,Jacksonville,FL,South,Monument,Monument,,1950,,"http://digitalcommons.unf.edu/historical_architecture_main/2916/; http://www.americanmemorialsdirectory.com/florida.html; http://www.waymarking.com/waymarks/WM8Y3Q_Yellow_Bluff_Fort_Confederate_Memorial_Jacksonville_FL",,30.3321838,-81.655651
204,0101000020E61000009F268E97C97C54C0D4528A671A0A3C40,,12,Confederate Monument,Munn Park,Lakeland,FL,South,Monument,Monument,,1910,,"http://www.theledger.com/article/20150627/NEWS/150629404; http://www.americanmemorialsdirectory.com/florida.html",,28.0394654,-81.9498042
205,0101000020E6100000042CA85E6DDA54C0F17CAB1A29783E40,,13,Confederate Monument,Four Freedoms Park,Madison,FL,South,Monument,Monument,,Unknown,,http://www.waymarking.com/waymarks/WM4JXA_Madison_County_Confederate_Memorial_Madison_FL,,30.4693772,-83.4129254
206,0101000020E61000000FB56D18854E55C0FA57456E3CC63E40,,14,Confederate War Memorial,"4409 Lafayette Street, Confederate Park",Marianna,FL,South,Monument,Monument,,1921,,http://collections.si.edu/search/tag/tagDoc.htm?recordID=siris_ari_325437&hlterm=confederate,http://www.cityofmarianna.com/facilities/facility/details/Confederate-Park-1,30.7743596,-85.2268735
207,0101000020E6100000CBC529841F5854C059147651F48E3C40,,15,Confederate Memorial,Magnolia Avenue,Orlando,FL,South,Monument,Monument,,1911,,http://www.orlandosentinel.com/news/politics/local/os-orlando-confederate-history-statue-20150725-story.html,"could not verify, could be the same as 488",28.5584155,-81.3769236
208,0101000020E61000000E10CCD1E3CD55C0CA4BFE277F6B3E40,,16,Confederate Memorial,Lee Square,Pensacola,FL,South,Monument,Monument,,1891,,"Geographic Names Information System, USGS; http://www.americanmemorialsdirectory.com/florida.html; http://www.pnj.com/story/news/local/pensacola/2015/08/01/confederate-monument-defaced/30929899/",,30.419909,-87.21703
209,0101000020E61000003B191C25AFE654C098840B7904233E40,,17,Confederate Monument,Hwy. 27,Perry,FL,South,Monument,Monument,,Unknown,,http://www.waymarking.com/waymarks/WM7K0P_Confederate_Monument_Perry_FL,may not be publicly funded,30.136787,-83.60444
210,0101000020E6100000645A9BC6F65354C014AE47E17AE43D40,,18,Confederate Monument,La Plaza Del Constitucion,St. Augustine,FL,South,Monument,Monument,,~1880,,http://www.flpublicarchaeology.org/civilwar/monuments/st.-augustine/csa-monument,,29.8925,-81.311937
211,0101000020E61000002310AFEB175254C060E811A3E73E3C40,,19,Confederate Monument,Veterans' Park,St. Cloud,FL,South,Monument,Monument,,2006,,http://www.civilwaralbum.com/misc20/stcloud1.htm,,28.245722,-81.28271
212,0101000020E61000005B23827170B354C0234F92AE99503E40,,20,Confederate Memorial,On East Side Of I-75 Immediately South Of Exit 439 Interchange (County Road 136),White Springs,FL,South,Monument,Monument,,2002,,"http://www.flpublicarchaeology.org/civilwar/monuments/white-springs; http://www.americanmemorialsdirectory.com/florida.html; http://www.waymarking.com/waymarks/WM1H1C_Confederate_Memorial_White_Springs_FL ",also has rebel flag,30.314845,-82.803738
213,0101000020E6100000FFB27BF2B0A454C0A888D349B67E3B40,,21,Confederate Monument,Manatee County Courthouse,Bradenton,FL,South,Monument / Courthouse,Monument,Courthouse Grounds,1924,,http://www.abcactionnews.com/news/region-sarasota-manatee/monument-dedicated-to-confederacy-sits-outside-manatee-county-courthouse-and-most-dont-even-know,,27.494969,-82.5733
214,0101000020E6100000C58D5BCCCF9854C02A013109178E3C40,,22,Confederate Soldier,Hernando County Courthouse. 20 N. Main St.,Brooksville,FL,South,Monument / Courthouse,Monument,Courthouse Grounds,1916,,http://collections.si.edu/search/tag/tagDoc.htm?recordID=siris_ari_319909&hlterm=confederate,,28.555039,-82.387683
215,0101000020E610000070F9FEBC5F8755C0712C94F194B83E40,,23,Walton County Confederate Monument,Walton County Courthouse,Defuniak Springs,FL,South,Monument / Courthouse,Monument,Courthouse Grounds,1871,,http://www.hmdb.org/marker.asp?marker=39775,,30.7210227,-86.1152184
216,0101000020E6100000E9BEF792A14E55C02464D64114C63E40,,24,Confederate Monument,Jackson County Courthouse,Marianna,FL,South,Monument / Courthouse,Monument,Courthouse Grounds,1881,,"http://www.waymarking.com/waymarks/WM806G_Confederate_Monument_Marianna_Fl; http://www.americanmemorialsdirectory.com/florida.html",,30.7737466,-85.2286117
217,0101000020E6100000DB0AABC2B0F754C00EB5125F928B3E40,,25,Confederate Monument,Jefferson County Courthouse,Monticello,FL,South,Monument / Courthouse,Monument,Courthouse Grounds,1899,,http://www.waymarking.com/waymarks/WMBW5E_Jefferson_County_Confederate_Memorial_Monticello_FL,,30.5452022,-83.8701636
218,0101000020E61000006FBBD05CA78654C0FC885FB1862F3D40,,26,Johnny Reb Monument,Ocala-Marion County Veterans Memorial Park,Ocala,FL,South,Monument / Courthouse,Monument,Courthouse Grounds,1908,,http://collections.si.edu/search/tag/tagDoc.htm?recordID=siris_ari_335304&hlterm=confederate,,29.185649,-82.103965
219,0101000020E6100000CA5AF91BA36854C05617A6A5A8A53D40,,27,Confederate Monument,Putnam County Courthouse,Palatka,FL,South,Monument / Courthouse,Monument,Courthouse Grounds,1956,,http://www.waymarking.com/waymarks/WM2FYJ_Putnam_County_Confederate_Monument_Palatka_Florida,,29.6471046,-81.6349554
220,0101000020E61000000F0B1060EC2455C0B8AA9102B0963E40,,28,Confederate Monument,Gadsden County Courthouse,Quincy,FL,South,Monument / Courthouse,Monument,Courthouse Grounds,1884,,http://www.capecentralhigh.com/travel/gadsden-county-florida/,,30.5886232,-84.5769272
221,0101000020E610000066D7625C169D54C085EB51B81EF33B40,,29,Confederate Soldiers Monument,Hillsborough County Courthouse. 419 Pierce St.,Tampa,FL,South,Monument / Courthouse,Monument,Courthouse Grounds,1911,,http://collections.si.edu/search/tag/tagDoc.htm?recordID=siris_ari_319874&hlterm=confederate,,27.9496875,-82.4544898
222,0101000020E61000009378D4F3C99454C0D5F21483D1A63D40,,30,Confederate Monument,Alachua County Administration Building,Gainesville,FL,South,Monument,Monument,Government Building,1904,,"http://siris-artinventories.si.edu/ipac20/ipac.jsp?session=N3235261594A9.29046&menu=search&aspect=power&npp=50&ipp=20&spp=20&profile=ariall&ri=&index=.GW&term=confederate+soldier+gainesville+florida&oper=AND&x=0&y=0&aspect=power&index=.AW&term=&oper=AND&i; http://www.waymarking.com/waymarks/WM3772_Gainesville_Fla_Civil_War_Memorial",THEY COUNTED THE COST/AND IN DEFENCE OF RIGHT/THEY PAID THE MARTYR'S PRICE,29.6516344,-82.3248262
223,0101000020E610000077431A15B83F54C047FFCBB568233D40,,31,Confederate Oak,Sugar Mill Botanical Gardens,Port Orange,FL,South,Tree,Other,,Unknown,,http://www.tripadvisor.com/LocationPhotoDirectLink-g34576-d270601-i40063435-Sugar_Mill_Botanical_Gardens-Port_Orange_Florida.html,,29.1383165,-80.9956105
224,0101000020E61000004E95EF1989A355C0645DDC4603C43E40,,32,Confederate Park,North Ferdon Blvd And East 1St Avenue,Crestview,FL,South,Park,Park,,1958,,http://www.hmdb.org/marker.asp?marker=86845,,30.765675,-86.555243
225,0101000020E6100000A54E4013E16954C0581D948B8C553E40,,33,Confederate Park,956 Hubbard Street,Jacksonville,FL,South,Park,Park,,1907,,http://apps2.coj.net/parksinternet/parkdetails.asp?parkid=236,,30.3341758,-81.6543625
226,0101000020E6100000700F9DF9306A54C0A99729F74C543E40,,34,Hemming Park,,Jacksonville,FL,South,Park,Park,,1898,,http://www.scv-kirby-smith.org/confederate_monument__hemming_pa.htm,,30.3292994,-81.6592392
227,0101000020E610000054D7EB27ADA154C0AFF2BA3434863B40,,35,Judah P. Benjamin Confederate Memorial at Gamble Plantation Historic State Park,,Manatee,FL,South,Park,Park,,1925,,"Geographic Names Information System, USGS; https://www.floridastateparks.org/parks/judah-p-benjamin-confederate-memorial-gamble-plantation-historic-state-park",,27.5242341,-82.5261936
229,0101000020E61000007ED64686E6CD55C09B62C4F4736B3E40,,37,Lee Square,,Pensacola,FL,South,Park,Park,,1889,,http://www.pensapedia.com/wiki/Lee_Square,Includes monuments,30.4197381,-87.2171951
230,0101000020E61000008014D09F116D54C06516461F984E3E40,,27,Robert E. Lee High School,1200 Mcduff Ave S,Jacksonville,FL,South,School,School,,1928,64%,,"Common Core of Data, NCES, https://en.wikipedia.org/wiki/Robert_E._Lee_High_School_(Jacksonville),,,,,,,,,,,,,,,",30.3070087,-81.7042007
231,0101000020E6100000568AD3FF286F54C07CB889FFE0403E40,,28,Jeb Stuart Middle School,4815 Wesconnett Blvd,Jacksonville,FL,South,School,School,,Unknown,58%,,"Common Core of Data, NCES,no answer,,,,,,,,,,,,,,,",30.2534332,-81.7368774
232,0101000020E61000005E3EA3BE766F54C05393E00D69443E40,,29,Stonewall Jackson Elementary School,6127 Cedar Hills Blvd,Jacksonville,FL,South,School,School,,Unknown,54%,,"Common Core of Data, NCES,,,,,,,,,,,,,,,,",30.267228,-81.7416226
233,0101000020E6100000C35BE7DFAE7054C0B8686DBF21413E40,,30,Jefferson Davis Middle School,7050 Melvin Rd,Jacksonville,FL,South,School,School,,Unknown,59%,,"Common Core of Data, NCES,,,,,,,,,,,,,,,,",30.2544212,-81.7606735
234,0101000020E6100000E7EA22E06B5954C032827CBF87953C40,,31,Robert E. Lee Middle School,1201 Maury Rd,Orlando,FL,South,School,School,,1956,63%,,"Common Core of Data, NCES,no answer,,,,,,,,,,,,,,,",28.5841026,-81.3972092
235,0101000020E61000002F4AD05F685354C0550B36BFAB873C40,,32,Stonewall Jackson Middle School,6000 Stonewall Jackson Rd,Orlando,FL,South,School,School,,1964,10%,,"Common Core of Data, NCES, http://articles.orlandosentinel.com/keyword/stonewall-jackson,,,,,,,,,,,,,,,",28.5299644,-81.3032455
236,0101000020E6100000FB100A00449D54C01E0714A05CF73B40,,33,Lee Elementary School of Technology / World Studies, 305 East Columbus Drive,Tampa,FL,South,School,School,,1943,56%,,https://en.wikipedia.org/wiki/Lee_Elementary_School_of_Technology_/_World_Studies,27.9662571,-82.4572754
237,0101000020E6100000FDA666C5A6F454C0ED69E278992C4140,,34,Longstreet Bridge,,Gainesville,GA,South,Bridge,Bridge,,1957,,http://bridgehunter.com/ga/hall/longstreet/,,34.3484336,-83.8226789
238,0101000020E61000005D0F7052E22355C0F02609D341E24040,o,,Sons of Confederate Veterans Commemorative License Plate,,Atlanta,GA,South,Commemorative License Plate,Commemorative License Plate,,,,http://www.huffingtonpost.com/2015/06/23/confederate-flag-license-plates_n_7647208.html,,33.7676338,-84.5606886
240,0101000020E6100000AE47E17A14AE54C08FC2F5285C0F4040,,#REF!,Wheeler County,,Alamo,GA,South,County,County,,1912,,"https://en.wikipedia.org/wiki/Wheeler_County,_Georgia",,32.12,-82.72
241,0101000020E61000009337C0CCF70955C01A68E32DFC864040,,#REF!,Lamar County,,Barnesville,GA,South,County,County,,1955,,http://www.waymarking.com/waymarks/WM4JV0,"Lamar County was created by Act of State Assembly August 17, 1920. It was named for Lucius Quintus Cincinnatus Lamar, lawyer, Colonel in the Confederate Army, U.S. Senator, Secretary of the Interior and Justice of the U.S. Supreme Court. The first officers of Lamar County included: B.H. Hardy, Ordinary; S.J.Childers, Clerk of Court; Z.T. Elliott, Sheriff; E. Luther Butler, Tax Receiver; Gus Smith, B.K. Crouch, Coroner; Roger H. Taylor, Surveyor; J.F. Redding, Judge; Mrs. Mattie Barnes, School Supt.; H.M. Johnson, E.O. Dobbs, H. J. Kennedy, Solicitors.",33.0545709,-84.1557495
242,0101000020E61000008DF4FD2F323355C0A154B1E721154140,,#REF!,Bartow County,,Cartersville,GA,South,County,County,,1861,,http://georgiahistory.com/ghmi_marker_updated/bartow-county/,"marker reads: Originally Cass, Bartow County was created by Act of Dec. 3, 1832 from Cherokee County. The name was changed Dec. 6 1861 to honor Gen. Francis S. Bartow (1816-1861), Confederate political leader and soldier, who fell mortally wounded at the First Battle of Manassas, while leading the 7th and 8th Ga. Vols. of his brigade. His last words were said to be, “They have killed me, boys, but never give up.” First officers of this county, commissioned March 9, 1833, were: Benjamin F. Adair, Sheriff; Chester Hawks, Clerk Superior Court; Leathern Rankin, Clerk Inferior Court; Nealy Goodwin, Surveyor; John Pack, Coroner.",34.1650972,-84.7999382
243,0101000020E61000008DD13AAA9AD654C08063CF9ECB324040,,#REF!,Bleckley County,,Cochran,GA,South,County,County,,1985,,http://georgiahistory.com/ghmi_marker_updated/bleckley-county/,"This County, created by an act of the Georgia Legislature July 30, 1912, is named for Chief Justice Logan E. Bleckley, of the Georgia Supreme Court, one of the greatest jurists in the history of this State. Born in Rabun County in 1827, he served as a Confederate soldier, resumed his law practice after the war, was an Associate Justice of the Supreme Court 1875-1880 and Chief Justice 1887-1894. Among the first Bleckley County officers were Sheriff J.A. Floyd, Superior Court Clerk J.T. Deese, Ordinary W.M. Wynne, Tax Receiver Jim Holland, Tax Collector W.D. Porter, Treasurer J.R. Taylor, Coroner Morgan Barrs, Surveyor W.H. Berryhill, Comm. of Roads and Revenue J.B. Hinson.",32.396839,-83.35319
245,0101000020E610000061BBC50D09A654C04F177321A0DE3F40,,#REF!,Jeff Davis County,,Hazlehurst,GA,South,County,County,,1905,,"https://en.wikipedia.org/wiki/Jeff_Davis_County,_Georgia",,31.8696309,-82.5943026
246,0101000020E610000091770E65A89454C012F6ED24221A4040,,#REF!,Toombs County,,Lyons,GA,South,County,County,,Unknown,,"https://en.wikipedia.org/wiki/Toombs_County,_Georgia",,32.204167,-82.322778
247,0101000020E61000005E8B27CC45D554C04F2734A4E5494140,,#REF!,Stephens County,,Toccoa,GA,South,County,County,,1905,,"https://en.wikipedia.org/wiki/Stephens_County,_Georgia",,34.5773206,-83.3323851
248,0101000020E610000063A131EEE10C55C02614C7269EE03E40,,#REF!,Confederate Memorial,Grady County Courthouse,Cairo,GA,South,Flag / Courthouse,Flag,Courthouse Grounds,Unknown,,http://www.wctv.tv/home/headlines/City-Leaders-Propose-Removal-of-Confederate-Flag-at-Grady-County-Courthouse-313021121.html,VOTED TO KEEP FLAG/ALSO HAS MONUMENT,30.8774132,-84.2012897
249,0101000020E6100000915ACDDFA9D954C089C67F2667704140,,#REF!,Confederate Flag,Rabun County Courthouse,Clayton,GA,South,Flag / Courthouse,Flag,Courthouse Grounds,Unknown,,http://sky963.com/are-rabuns-confederate-flags-offensive/,VOTED TO KEEP FLAG/ALSO HAS MONUMENT,34.8781479,-83.4009933
250,0101000020E610000089439149A12D55C0DA3E3FE7C9B44040,o,,Jeb Stuart Drive,,Newnan,GA,South,Road / Street / Highway,Highway / Roadway,,Unknown,,,,33.4124116,-84.7129692
251,0101000020E6100000F5D5FAC7672D55C01C53C1F231B54040,o,,General Lee Drive,,Newnan,GA,South,Road / Street / Highway,Highway / Roadway,,Unknown,,,,33.4155868,-84.7094593
252,0101000020E6100000B23B93ECC7EA54C002B1B673AB534040,o,,General Lee Road,,Warner Robins,GA,South,Road / Street / Highway,Highway / Roadway,,Unknown,,,,32.6536698,-83.6684524
253,0101000020E61000007DBACB8F09EB54C066ED0099E76E4040,o,,General Lee Road,,Macon,GA,South,Road / Street / Highway,Highway / Roadway,,Unknown,,,,32.8664428,-83.6724586
254,0101000020E61000009483D90498FB54C08F5B278980094140,o,,General Lee Way,,Buford,GA,South,Road / Street / Highway,Highway / Roadway,,Unknown,,,,34.0742351,-83.9311535
255,0101000020E61000008D76DCF0BB6254C0EF49719F663E3F40,o,,General Robert E. Lee Road,,Brunswick,GA,South,Road / Street / Highway,Highway / Roadway,,Unknown,,,,31.2437534,-81.542721
256,0101000020E61000008FD7CDD60B0A55C073B21E08DAE64040,o,,Robert E. Lee Boulevard,,Stone Mountain,GA,South,Road / Street / Highway,Highway / Roadway,,Unknown,,,,33.8035288,-84.1569726
257,0101000020E6100000585E4DF96B0855C07EB38300CFE74040,o,,Stonewall Jackson Drive,,Stone Mountain,GA,South,Road / Street / Highway,Highway / Roadway,,Unknown,,,,33.8110047,-84.1315902
258,0101000020E6100000792288F3F00855C03F389F3A56E84040,o,,Jefferson Davis Drive,,Stone Mountain,GA,South,Road / Street / Highway,Highway / Roadway,,Unknown,,,,33.8151315,-84.1397065
260,0101000020E610000056D4601A863B55C0F81A82E332344040,o,,Robert E. Lee Drive,,Columbus,GA,South,Road / Street / Highway,Highway / Roadway,,Unknown,,,,32.407803,-84.93006
261,0101000020E6100000F24D89DAECD354C0282CF180B2CD4040,o,,Jefferson Davis Road,,Greensboro,GA,South,Road / Street / Highway,Highway / Roadway,,Unknown,,,,33.60701,-83.3113314
262,0101000020E61000006DFFCA4A935055C0CD7575221C794140,o,,Robert E. Lee Street,,Fort Oglethorpe,GA,South,Road / Street / Highway,Highway / Roadway,,Unknown,,,,34.9461711,-85.25899
263,0101000020E6100000F4EB3D4B465055C0775380DE0A794140,o,,Forrest Road,,Fort Oglethorpe,GA,South,Road / Street / Highway,Highway / Roadway,,Unknown,,,,34.9456442,-85.2542904
264,0101000020E61000007D6363B9805055C0E14B3CFB25794140,o,,Shelby Street,,Fort Oglethorpe,GA,South,Road / Street / Highway,Highway / Roadway,,Unknown,,,,34.9464716,-85.2578567
265,0101000020E6100000FC839213375055C0A452EC681C794140,o,,Polk Circle,,Fort Oglethorpe,GA,South,Road / Street / Highway,Highway / Roadway,,Unknown,,,,34.9461795,-85.2533616
266,0101000020E6100000BDEDF8E5824A55C014D7E7209E764140,o,,Robert E. Lee Drive,,Ringgold,GA,South,Road / Street / Highway,Highway / Roadway,,Unknown,,,,34.9267007,-85.1642394
267,0101000020E61000009C61B4D8B72A55C07EB61F3A4EAE4040,o,,Bedford Forrest Drive,,Sharpsburg,GA,South,Road / Street / Highway,Highway / Roadway,,Unknown,,,,33.3617623,-84.6674711
268,0101000020E6100000771F36478CE954C0809076ED1C694040,o,,Jeff Davis Street,,Macon,GA,South,Road / Street / Highway,Highway / Roadway,,Unknown,,,,32.8211953,-83.6491869
269,0101000020E61000003F9D3C76E19454C018096D39971B4040,o,,Jeff Davis Avenue,,Lyons,GA,South,Road / Street / Highway,Highway / Roadway,,Unknown,,,,32.2155525,-82.3262611
270,0101000020E6100000FBEEB14F5B1955C0DE27A2BA14794040,o,,Jeff Davis Road,,Thomaston,GA,South,Road / Street / Highway,Highway / Roadway,,Unknown,,,,32.9459451,-84.3961982
271,0101000020E61000002EC088C78F4855C0909F8D5C37A04040,o,,Jeff Davis Road,,Franklin,GA,South,Road / Street / Highway,Highway / Roadway,,Unknown,,,,33.2516895,-85.1337756
272,0101000020E610000070A2A7122FC754C05057D2E528134040,o,,Jefferson Davis Memorial Road,,Eastman,GA,South,Road / Street / Highway,Highway / Roadway,,Unknown,,,,32.1496856,-83.1122481
273,0101000020E61000009BAE8273A11755C07C48F8DEDFC24040,o,,Jeff Davis Drive,,Jonesboro,GA,South,Road / Street / Highway,Highway / Roadway,,Unknown,,,,33.522457,-84.3692292
274,0101000020E61000009BAE8273A11755C07C48F8DEDFC24040,o,,Robert E. Lee Parkway,,Jonesboro,GA,South,Road / Street / Highway,Highway / Roadway,,Unknown,,,,33.522457,-84.3692292
275,0101000020E61000009BAE8273A11755C07C48F8DEDFC24040,o,,Stonewall Jackson Drive,,Jonesboro,GA,South,Road / Street / Highway,Highway / Roadway,,Unknown,,,,33.522457,-84.3692292
276,0101000020E61000009BAE8273A11755C07C48F8DEDFC24040,o,,Jeb Stuart Drive,,Jonesboro,GA,South,Road / Street / Highway,Highway / Roadway,,Unknown,,,,33.522457,-84.3692292
277,0101000020E6100000775AC86DC59254C0242713B70A363F40,o,,Jeb Stuart Drive,,Waycross,GA,South,Road / Street / Highway,Highway / Roadway,,Unknown,,,,31.211101,-82.2933001
278,0101000020E6100000BE11DDB3AE9254C0835726570C363F40,o,,Stonewall Jackson Place,,Waycross,GA,South,Road / Street / Highway,Highway / Roadway,,Unknown,,,,31.2111258,-82.291913
279,0101000020E610000042EC4CA1F31C55C0E9A0A6F166BA4040,o,,Jeff Davis Drive,,Fayetteville,GA,South,Road / Street / Highway,Highway / Roadway,,Unknown,,,,33.4562666,-84.45237
280,0101000020E6100000FB905CA38A4654C0071DBE96A1014040,o,,Beauregard Street,,Savannah,GA,South,Road / Street / Highway,Highway / Roadway,,Unknown,,,,32.0127438,-81.1022118
281,0101000020E6100000FB905CA38A4654C0071DBE96A1014040,o,,Jackson Boulevard,,Savannah,GA,South,Road / Street / Highway,Highway / Roadway,,Unknown,,,,32.0127438,-81.1022118
282,0101000020E6100000FB905CA38A4654C0071DBE96A1014040,o,,Wheeler Street,,Savannah,GA,South,Road / Street / Highway,Highway / Roadway,,Unknown,,,,32.0127438,-81.1022118
283,0101000020E6100000FB905CA38A4654C0071DBE96A1014040,o,,Stuart Street,,Savannah,GA,South,Road / Street / Highway,Highway / Roadway,,Unknown,,,,32.0127438,-81.1022118
284,0101000020E6100000FB905CA38A4654C0071DBE96A1014040,o,,Hampton Street,,Savannah,GA,South,Road / Street / Highway,Highway / Roadway,,Unknown,,,,32.0127438,-81.1022118
285,0101000020E6100000FB905CA38A4654C0071DBE96A1014040,o,,Mosby Street,,Savannah,GA,South,Road / Street / Highway,Highway / Roadway,,Unknown,,,,32.0127438,-81.1022118
286,0101000020E610000009675CDDD64654C0D0E1106047024040,o,,Lee Boulevard,,Savannah,GA,South,Road / Street / Highway,Highway / Roadway,,Unknown,,,,32.0178032,-81.1068643
287,0101000020E610000009675CDDD64654C0D0E1106047024040,o,,Early Street,,Savannah,GA,South,Road / Street / Highway,Highway / Roadway,,Unknown,,,,32.0178032,-81.1068643
288,0101000020E610000009675CDDD64654C0D0E1106047024040,o,,McClaws Street,,Savannah,GA,South,Road / Street / Highway,Highway / Roadway,,Unknown,,,,32.0178032,-81.1068643
289,0101000020E610000009675CDDD64654C0D0E1106047024040,o,,Johnston Street,,Savannah,GA,South,Road / Street / Highway,Highway / Roadway,,Unknown,,,,32.0178032,-81.1068643
290,0101000020E61000007A45A632FB8454C0FECBFFF51BBE4040,,1,Wheeler Road,,Augusta,GA,South,Road / Street / Highway,Highway / Roadway,,Unknown,,,,33.4852283,-82.0778319
291,0101000020E6100000A80826EDFC3555C03E384481E3F64040,,2,Confederate Avenue,,Dallas,GA,South,Road / Street / Highway,Highway / Roadway,,Unknown,,"https://www.google.com/maps/place/Confederate+Ave,+Dallas,+GA+30132/@33.9288179,-84.8435624,17z/data=!3m1!4b1!4m2!3m1!1s0x88f5316949b94f8b:0xead02b266700b6da",,33.9288179,-84.8435624
301,0101000020E6100000237DFF8B0C1555C0F7A287EB62CF4040,,12,Hood Avenue,,Forest Park,GA,South,Road / Street / Highway,Highway / Roadway,,1957,,http://georgiahistory.com/ghmi_marker_updated/hood-avenue/,"Named in honor of General John Bell Hood (USMA 1853), who was a Lieut. General in command of the 2nd Corps, Army of Tennessee, CSA, during Atlanta Campaign in 1864. He succeeded General Joseph E. Johnston as commanding general of Confederate forces who were defeated in the Battle of Atlanta and whose troops fought a delaying action on the Depot site during the retreat. Born at Owingsville, Ky., June 1, 1831. Died August 30, 1879.
[There are two identical Hood Avenue markers",33.6202063,-84.3288908
302,0101000020E61000005BE8EF4A371455C07A5A345310D04040,,13,Wheeler Drive,,Forest Park,GA,South,Road / Street / Highway,Highway / Roadway,,1957,,http://georgiahistory.com/ghmi_marker_updated/wheeler-drive/,,33.6254982,-84.3158748
303,0101000020E61000005E4C33DD6BA654C00B51CFCCDDDC3F40,,14,Jeff Davis Street,,Hazlehurst,GA,South,Road / Street / Highway,Highway / Roadway,,Unknown,,,,31.8627594,-82.6003335
304,0101000020E6100000AFA3607C874255C05A86938F38854040,,15,Ben Hill Street,,LaGrange,GA,South,Road / Street / Highway,Highway / Roadway,,Unknown,,,named after a member of the Confederate congress,33.0407886,-85.0395194
305,0101000020E610000003EB387E282D55C07ECA8C124FB44040,,16,General Longstreet Line,,Newnan,GA,South,Road / Street / Highway,Highway / Roadway,,Unknown,,,,33.4086631,-84.7055965
307,0101000020E610000009EFBC9E79AE54C02CA7F397CCDD4040,,1,Robert Toombs Avenue,,Washington,GA,South,Road / Street / Highway,Highway / Roadway,,Unknown,,,,33.7328062,-82.7261731
308,0101000020E61000003F64DBB378F754C0335310F230CD4040,,2,Jefferson Davis Highway,,,GA,South,Road / Street / Highway,Highway / Roadway,,,,,,33.6030562,-83.8667421
309,0101000020E6100000E807BF1EDDD854C0DAEB9392D4A94040,,3,Birthplace of Lucius Quintus Cincinnatus Lamar,Courthouse,Eatonton,GA,South,Monument / Courthouse,Monument,Courthouse Grounds,1936,,http://www.waymarking.com/waymarks/WM6ZXK,was categorized as monument but is a marker,33.3267997,-83.3884961
310,0101000020E61000005E8FD321013E55C07B4F406E1A2D4040,,4,Fort Benning,,Fort Benning,GA,South,Military Base,Military Base,,1918,,https://en.wikipedia.org/wiki/Fort_Benning,,32.3523691,-84.9688191
311,0101000020E6100000ECD5C7435F8A54C00F441669E2B54040,,5,Fort Gordon,,Fort Gordon,GA,South,Military Base,Military Base,,1917,,https://en.wikipedia.org/wiki/Fort_Gordon,,33.420972,-82.1620645
312,0101000020E6100000D30B885AE40E55C0AE179EF243094040,,6,Confederate Monument,Rees Park,Americus,GA,South,Monument,Monument,,1900,,http://collections.si.edu/search/tag/tagDoc.htm?recordID=siris_ari_313998&hlterm=confederate,,32.0723861,-84.2326876
313,0101000020E61000006FDCBD37E11755C0EC504D49D6DF4040,,7,Brigadier General Alfred Iverson Jr.,248 Oakland Avenue Se,Atlanta,GA,South,Monument,Monument,,Unknown,,http://www.hmdb.org/marker.asp?marker=64825,may not be publicly funded,33.748727,-84.3731212
314,0101000020E6100000056A3178181955C0A3C794B487E04040,,8,Eternal Flame of the Confederacy,Underground - Five Points Marta,Atlanta,GA,South,Monument,Monument,,1939,,http://www.hmdb.org/marker.asp?marker=18622,"Erected under the auspices of the Old Guard and Atlanta Chapter U.D.C. A.D. 1919 in memory of Andrew J. West. Beloved citizen Captain C.S.A.-General U.C.V.

The damage at the base of this lamp post was caused by a shell during The War Between the States, Battle of Atlanta July 22nd 1864.
____________________________________
The Eternal Flame Of The Confederacy Lighted during the ""Gone With The Wind"" festivities December 14, 1939, by the Old Guard Battalion of the Gate City Guard.",33.7541414,-84.3921185
315,0101000020E6100000EF874446AC8054C02DDD6E939BBC4040,,9,Augusta Confederate Monument,"700 Block, Broad Street",Augusta,GA,South,Monument,Monument,,1878,,http://www.wrdw.com/home/headlines/Questions-raised-about-confederate-monument-in-downtown-Augusta-309626291.html / http://collections.si.edu/search/tag/tagDoc.htm?recordID=siris_ari_335465&hlterm=confederate,,33.4734978,-82.0105148
318,0101000020E61000004615B47FD42455C023A46E675FE73E40,,12,Confederate Monument,Willis Park,Bainbridge,GA,South,Monument,Monument,,1936,,http://www.waymarking.com/waymarks/WM77XA_To_Our_Confederate_Soldiers_Bainbridge_Ga,,30.9037995,-84.5754699
319,0101000020E61000002AD5F48F745F54C091F1834E63263F40,,13,Glynn County Confederate Monument,Hanover Square,Brunswick,GA,South,Monument,Monument,,1902,,http://collections.si.edu/search/tag/tagDoc.htm?recordID=siris_ari_333017&hlterm=confederate,,31.1499528,-81.4914894
320,0101000020E61000004D6E6F12DE3C55C0873254C554404140,,14,Calhoun Veterans Monument,Rte. 41 And 225,Calhoun,GA,South,Monument,Monument,,1927,,http://collections.si.edu/search/tag/tagDoc.htm?recordID=siris_ari_327942&hlterm=confederate,also honors WWI veterans,34.502587,-84.9510542
321,0101000020E6100000716770A5681F55C0553772384E1E4140,,15,Confederate Memorial Arch,Brown Park,Canton,GA,South,Monument,Monument,,1923,,http://www.waymarking.com/waymarks/WM47WX_Confederate_Memorial_Arch_Canton_Ga,opposite side honors ww1 vets,34.2367621,-84.4907621
322,0101000020E61000008DF4FD2F323355C0A154B1E721154140,,16,Bartow County Confederate Monument,Bartow County Courthouse,Cartersville,GA,South,Monument,Monument,,1908,,http://collections.si.edu/search/tag/tagDoc.htm?recordID=siris_ari_336959&hlterm=confederate,,34.1650972,-84.7999382
323,0101000020E61000008299A5530DD754C0D9EDB3CA4C324040,,17,Bleckley County Confederate Monument,Dykes St. And Second St.,Cochran,GA,South,Monument,Monument,,1910,,http://collections.si.edu/search/tag/tagDoc.htm?recordID=siris_ari_336962&hlterm=confederate,,32.3929685,-83.3601884
324,0101000020E6100000EABC7CA1363F55C0291D5146013B4040,,18,Muscogee County Confederate Monument,Salisbury Park. 700 Broadway,Columbus,GA,South,Monument,Monument,,1879,,http://collections.si.edu/search/tag/tagDoc.htm?recordID=siris_ari_336964&hlterm=confederate,,32.4609764,-84.9877094
423,0101000020E6100000109777303DED54C012B177352FC94240,,117,Lee County,,Beattyville,KY,Border,County,County,,1971,,"https://en.wikipedia.org/wiki/Lee_County,_Kentucky",,37.5717532,-83.7068597
325,0101000020E6100000C146FE05273D55C0ABCB290131444040,,19,Tyler Home — Ladies Aid Society,Veterans Parkway,Columbus,GA,South,Monument,Monument,,1936,,http://www.waymarking.com/waymarks/WM4H23_TYLER_HOME_LADIES_AID_SOCIETY_COLUMBUS_GEORGIA,"TYLER HOME – LADIES AID SOCIETY Where in March 1866, the Ladies Aid Society organized the first memorial association honoring Confederate heroes. “One Day” each year is theirs. W.P.A. – 1936 – U.D.C.",32.5327455,-84.9555068
326,0101000020E610000075C01A0C1AF254C082EF479BF4FA3F40,,20,Crisp County Confederate Monument,Community Clubhouse. Corner Of 16Th Ave. And 7Th St.,Cordele,GA,South,Monument,Monument,,1911,,http://collections.si.edu/search/tag/tagDoc.htm?recordID=siris_ari_336967&hlterm=confederate,,31.9802949,-83.7828398
327,0101000020E61000002DE521F8843255C09C3AEA4372C53F40,,21,Randolph County Confederate Monument,City Park,Cuthbert,GA,South,Monument,Monument,,1910,,http://collections.si.edu/search/tag/tagDoc.htm?recordID=siris_ari_336970&hlterm=confederate,,31.7712748,-84.7893658
355,0101000020E61000008EC9E2FE23A054C083F6EAE3A1BB4040,,49,Confederate Women Fountain (Women of the Sixties),Main St. And Railroad St.,Thomson,GA,South,Monument,Monument,,1911-1920,,http://collections.si.edu/search/tag/tagDoc.htm?recordID=siris_ari_335488&hlterm=confederate,,33.465878,-82.502197
328,0101000020E61000005C04C6FA063E55C07B4D0F0A4A634140,,22,General Johnston Headquarters,314 N. Selvidge St.,Dalton,GA,South,Monument,Monument,,Unknown,,http://lat34north.com/HistoricMarkers/MarkerDetail.cfm?KeyID=155-A04&MarkerTitle=General%20Johnston%20Headquarters,"Owned by Historic Society; General Joseph E. Johnston
Commanding Confederate Army
Occupied this house as headquarters
From December 1863 to March 1864. http://www.timesfreepress.com/news/local/story/2013/oct/21/northwest-georgians-study-historic-homes-past/121889/",34.775697,-84.969176
329,0101000020E6100000570339CD27B754C0145A208B7E823F40,,23,Confederate Soldier,Peterson Ave. And Ward St.,Douglas,GA,South,Monument,Monument,,1911,,http://collections.si.edu/search/tag/tagDoc.htm?recordID=siris_ari_313989&hlterm=confederate,,31.5097434,-82.8618043
330,0101000020E6100000E807BF1EDDD854C0DAEB9392D4A94040,,24,Eatonton Confederate Monument,108 South Madison Ave. And West Marion St. Across From Courthouse,Eatonton,GA,South,Monument,Monument,,1908,,http://collections.si.edu/search/tag/tagDoc.htm?recordID=siris_ari_337694&hlterm=confederate,,33.3267997,-83.3884961
331,0101000020E610000083723678BAB654C0583E26AD53104140,,25,Elbert County Confederate Monument,Sutton Square,Elberton,GA,South,Monument,Monument,,1898,,http://collections.si.edu/search/tag/tagDoc.htm?recordID=siris_ari_333022&hlterm=confederate,,34.1275536,-82.8551312
332,0101000020E6100000FCABC77D2BD054C069A44A3904B73F40,,26,Jefferson Davis Monument,"Jefferson Davis Memorial Historic Site, 338 Jeff Davis Park Road",Fitzgerald,GA,South,Monument,Monument,,Unknown,,"
 / http://www.hmdb.org/Marker.asp?Marker=42188",,31.7149082,-83.2526545
333,0101000020E61000002AA67796454655C01FE340FE88A34040,,27,Heard County Confederate Monument,Veterans Park,Franklin,GA,South,Monument,Monument,,1999,,http://www.waymarking.com/waymarks/WM7QFZ_Heard_County_Confederate_Monument,,33.2776182,-85.0979973
334,0101000020E6100000160F9480BDF454C0789384E920264140,,28,Hall County Confederate Monument,Public Square,Gainesville,GA,South,Monument,Monument,,1909,,http://collections.si.edu/search/tag/tagDoc.htm?recordID=siris_ari_338189&hlterm=confederate,,34.2978794,-83.8240663
495,0101000020E610000066DE05A5C36E57C0B2857BC097414040,o,,General Bragg Drive,,Bossier City,LA,South,Road / Street / Highway,Highway / Roadway,,,,,,32.5124436,-93.7306912
335,0101000020E6100000812F3B7AB20F55C0D9565815869E4040,,29,Confederate Monument,Memorial Park. Taylor St. And Memorial Dr.,Griffin,GA,South,Monument,Monument,,1909,,http://collections.si.edu/search/tag/tagDoc.htm?recordID=siris_ari_338646&hlterm=confederate,,33.2384669,-84.2452684
336,0101000020E6100000699C97D49AB954C0577FDF1A33154040,,30,Jefferson Davis Memorial,Jeff Davis And South Tallahassee Street,Hazelhurst,GA,South,Monument,Monument,,Unknown,,http://www.hmdb.org/marker.asp?marker=22204,,32.1656221,-82.9000751
337,0101000020E6100000814D8C1BEDD954C03C50A73CBAA33F40,,31,Jefferson Davis Memorial,790-798 Jeff Davis Park Rd,Irwinville,GA,South,Monument,Monument,,1935,,http://collections.si.edu/search/tag/tagDoc.htm?recordID=siris_ari_338762&hlterm=confederate,http://www.gpb.org/sitestobehold/jefferson-davis,31.6395605,-83.4050969
338,0101000020E6100000B3A899FFA1E454C01AB09A9DFB0E4140,,32,Jackson County Confederate Monument,"Town Square, Sycamore St",Jefferson,GA,South,Monument,Monument,,1911,,http://collections.si.edu/search/tag/tagDoc.htm?recordID=siris_ari_337708&hlterm=confederate,MOVED: http://chronicle.augusta.com/latest-news/2011-06-14/north-ga-confederate-monument-damaged-move,34.1170537,-83.5723876
339,0101000020E6100000ADEEA2F92DD654C0D49CBCC804584040,,33,Twiggs County Confederate Monument,(S. Railroad & S. Ash St) Jeffersonville Hwy. 80 Near Courthouse,Jeffersonville,GA,South,Monument,Monument,,1911,,http://collections.si.edu/search/tag/tagDoc.htm?recordID=siris_ari_337707&hlterm=confederate,,32.687646,-83.3465561
